식별번호,시장명,시장유형,소재지도로명주소,소재지지번주소,위도,경도
04003,강릉중앙시장,상설장,강원특별자치도 강릉시 금성로21,강원특별자치도 강릉시 성남동 50,37.75402359,128.8986233
04003,강릉동부시장,상설장,강원특별자치도 강릉시 옥천로 48,강원특별자치도 강릉시 옥천동 223,37.76006572,128.9006624
04003,강릉서부시장,상설장,강원특별자치도 강릉시 임영로 155번길 6,강원특별자치도 강릉시 용강동 29,37.75509423,128.8907988
04003,주문진종합시장,상설장,강원특별자치도 강릉시 주문진읍 구시장길 11-3,강원특별자치도 강릉시 주문진읍 주문리 321-14,37.89143538,128.8269078
04003,주문진수산시장,상설장,강원특별자치도 강릉시 주문진읍 시장2길 4,강원특별자치도 강릉시 주문진읍 주문리 312-439,37.89097196,128.8280066
04003,주문진좌판풍물시장,상설장,강원특별자치도 강릉시 주문진읍 해안로 1758-10,강원특별자치도 강릉시 주문진읍 주문리 312-713,37.89172179,128.8293126
04003,주문진건어물시장,상설장,강원특별자치도 강릉시 주문진읍 해안로1748,강원특별자치도 강릉시 주문리 312-708,37.89114216,128.8287525
04003,강릉성남시장,상설장,강원특별자치도 강릉시 중앙시장1길 16,강원특별자치도 강릉시 성남동 54-10,37.75345075,128.8992157
05001,간성전통시장,5일장,강원특별자치도 고성군 간성시장3길 7-2,강원특별자치도 고성군 간성읍 신안리 311-10,38.37999652,128.4694501
05001,거진전통시장,상설장+5일장,강원특별자치도 고성군 거진시장길 15,강원특별자치도 고성군 거진리 272,38.44783915,128.4539615
02016,북평민속시장,5일장,강원특별자치도 동해시 오일장길 32,강원특별자치도 동해시 북평동 15-5,37.48247246,129.1260277
02016,묵호항 자연산 수산물 판매장,상설장,강원특별자치도 동해시 일출로 15-128,강원특별자치도 동해시 묵호진동 15-128번지 외 4필지,37.5520617,129.1162072
02016,묵호시장,상설장,강원특별자치도 동해시 일출로 59-1,강원특별자치도 동해시묵호동 15-61,37.55235883,129.114195
02016,동쪽바다 중앙시장,상설장,강원특별자치도 동해시 중앙시장길 12,강원특별자치도 동해시 발한동 7-1,37.55104798,129.1085724
02016,동해남부재래시장,상설장,강원특별자치도 동해시 청운1길 29,강원특별자치도 동해시 동회동 442,37.48761131,129.1035481
02023,도계중앙시장,상설장,강원특별자치도 삼척시 도계읍 도계로4길 20,강원특별자치도 삼척시 도계읍 도계리 390-1,37.23515044,129.0451079
02023,도계전두시장,상설장,강원특별자치도 삼척시 도계읍 전두시장길 6-1,강원특별자치도 삼척시 도계읍 전두리 81-20,37.22913387,129.0428102
02023,삼척번개시장,상설장,강원특별자치도 삼척시 중앙로 14-27,강원특별자치도 삼척시 사직동 50-11,37.43090508,129.1785784
02023,삼척중앙시장,5일장,강원특별자치도 삼척시 진주로 12-21,강원특별자치도 삼척시 남양동 55-4,37.44210346,129.1646216
02013,(사)속초종합중앙시장,상설장,강원특별자치도 속초시 중앙로147번길 16,강원특별자치도 속초시 중앙동 471-4,38.20452186,128.5901906
02013,속초중앙전통시장,상설장,강원특별자치도 속초시 중앙시장로 6길 4,강원특별자치도 속초시 중앙동 493-51,38.20540373,128.5893551
02008,양구중앙시장,5일장,강원특별자치도 양구군 중앙길 68,강원특별자치도 양구군 상리 235,38.10410575,127.9893293
02005,양양전통시장,5일장,강원특별자치도 양양군 양양읍 남문5길 9,강원특별자치도 양양군 남문리 57,38.07506325,128.6232929
02002,서부공설시장,상설장,강원특별자치도 영월군 영월읍 서부시장길 8-1,강원특별자치도 영월군 영월읍 하송리 5-10,37.18292424,128.4663131
02002,영월종합상가,상설장,강원특별자치도 영월군 영월읍 하송안 길,강원특별자치도 영월군 영월읍 하송리 11-3,37.18222729,128.4667099
02002,서부아침시장,상설장,강원특별자치도 영월군 중앙로 30-1,강원특별자치도 영월군 영월읍 영흥리 947-57,37.18331946,128.4667527
02015,문막전통시장,5일장,강원특별자치도 원주시 문막읍 문막시장1길 52-10,강원특별자치도 원주시 문막읍 문막리 240-1,37.30603623,127.8153591
02015,북원상가시장,상설장,강원특별자치도 원주시 북원상가길 13,강원특별자치도 원주시 태장2동 1379-23,37.38437866,127.9488481
02015,중앙시민전통시장,상설장,강원특별자치도 원주시 자유시장길 26,강원특별자치도 원주시 중앙동 42-3,37.35170226,127.9496432
02015,원주자유시장,상설장,강원특별자치도 원주시 중앙시장길 11,강원특별자치도 원주시 중앙동 57,37.35022856,127.9486248
02015,원주중앙시장,상설장,강원특별자치도 원주시 중앙시장길 6,강원특별자치도 원주시 중앙동 60-56,37.3500121,127.9491922
02015,원주남부시장,상설장,강원특별자치도 원주시 치악로 1803,강원특별자치도 원주시 명륜동 26,37.34301479,127.9544876
02015,원주민속풍물시장,5일장,강원특별자치도 원주시 풍물시장길 30,강원특별자치도 원주시 평원동 134-1,37.34898697,127.9541166
02009,기린전통시장,5일장,강원특별자치도 인제군 기린면 기린로 17,강원특별자치도 인제군 기린면 현리 639-9번지,37.95398472,128.3168559
02009,원통시장,5일장,강원특별자치도 인제군 북면 원통로 178번길 7-1,강원특별자치도 인제군 북면 원통리 647-40,38.12258112,128.2046174
02009,인제시장,5일장,강원특별자치도 인제군 인제읍 인제로 178번길 14,강원특별자치도 인제군 인제읍 상동리 258-32번지,38.06709944,128.1710768
02022,고한구공탄시장,상설장+5일장,강원특별자치도 정선군 고한읍 고한 4길 38-6,강원특별자치도 정선군 고한읍 고한리 62-14,37.20132181,128.8540542
02022,정선사북시장,상설장,강원특별자치도 정선군 사북읍 사북2길 6 - 1,강원특별자치도 정선군 사북읍 사북리 366-59,37.22736185,128.8162173
02022,임계사통팔달시장,5일장,강원특별자치도 정선군 송계3길 12,강원특별자치도 정선군 송계리 774-5,37.49511413,128.8525744
02022,정선아리랑시장,5일장,강원특별자치도 정선군 정선읍 봉양7길 39,강원특별자치도 정선군 정선읍 봉양리 349-20,37.38039035,128.6652264
02004,신철원전통시장,5일장,강원특별자치도 철원군 갈말읍 삼부연로18번길 16-2,강원특별자치도 철원군 갈말읍 신철원리 697,38.14472692,127.3100254
02004,동송시장,5일장,강원특별자치도 철원군 동송읍 이평로 47번길 16,강원특별자치도 철원군 동송읍 이평리 680-1,38.20880978,127.218876
02004,동송전통시장,5일장,강원특별자치도 철원군 동송읍 이평로 47번길 19,강원특별자치도 철원군 동송읍 이평리 678-49,38.2089011,127.2192783
02004,와수전통시장,상설장+5일장,강원특별자치도 철원군 서면 와수로 184번길 6-3,강원특별자치도 철원군 서면 와수리 1171-92,38.23946579,127.4394938
04001,춘천남부시장,상설장,강원특별자치도 춘천시 공지로 367,강원특별자치도 춘천시 효자동 684-11,37.87056273,127.7260495
04001,춘천동부시장,상설장,강원특별자치도 춘천시 동부시장길8,강원특별자치도 춘천시 운교동 183,37.87723546,127.734114
04001,춘천서부시장,상설장,강원특별자치도 춘천시 서부대성로12,강원특별자치도 춘천시 소양로2가 172-1,37.88481452,127.7246493
04001,춘천번개시장,상설장,강원특별자치도 춘천시 소양로212 새마을금고2층,강원특별자치도 춘천시 소양로1가 93-10,37.89183308,127.7263073
04001,제일종합시장,상설장,강원특별자치도 춘천시 약사고개길13,강원특별자치도 춘천시 죽림동 32,37.87748142,127.7260807
04001,춘천풍물시장,5일장,강원특별자치도 춘천시 영서로 2352-54,강원특별자치도 춘천시 온의동 148-1,37.86623705,127.7195843
04001,춘천중앙시장,상설장,강원특별자치도 춘천시 중앙로77번길 4-4,강원특별자치도 춘천시 중앙로2가 42-18,37.87849419,127.7257538
04001,춘천후평시장,상설장,강원특별자치도 춘천시 효평길 104,강원특별자치도 춘천시 후평동 691-22,37.88079022,127.746783
02031,황지자유시장,상설장,강원특별자치도 태백시 시장안길 18 - 1,강원특별자치도 태백시 통동 75-32,37.17303883,129.0412268
02031,태백시 장성중앙시장,상설장,강원특별자치도 태백시 장성1길 190,강원특별자치도 태백시 장성동 159-2,37.10068429,129.009713
02028,평창대화시장,5일장,강원특별자치도 평창군 대화면 대화시장 2길 41,강원특별자치도 평창군 대화면 대화리 1001-163,37.50110318,128.4539931
02028,봉평전통시장,5일장,강원특별자치도 평창군 봉평면 허생원장터길15,강원특별자치도 평창군 봉평면 창동리 397-34,37.61559178,128.3772803
02028,진부전통시장,5일장,강원특별자치도 평창군 진부면 진부새싹길 28-7,강원특별자치도 평창군 진부면 하진부리 206-95,37.63821679,128.5579259
02028,평창전통시장,5일장,강원특별자치도 평창군 평창읍 평창중앙로 27-26,강원특별자치도 평창군 평창읍 하리 139-1,37.36723552,128.3947832
02029,홍천시장,상설장,강원특별자치도 홍천군 홍천읍 번영로 53번지 일원,강원특별자치도 홍천군 홍천읍 신장대리 8-128번지 일원,37.69055257,127.8862031
02029,홍천중앙시장,상설장,강원특별자치도 홍천군 홍천읍 홍천로 8길 17,강원특별자치도 홍천군 홍천읍 신장대리 5-3,37.69108298,127.886165
02014,화천전통시장,5일장,강원특별자치도 화천군 화천읍 중앙로 24길12,강원특별자치도 화천군 화천읍 하리 50-7,38.10390468,127.7064262
02019,횡성시장,상설장+5일장,강원특별자치도 횡성군 횡성읍 삼일로 4-2,,37.4898938,127.9866151
02030,가평잣고을시장,5일장,경기도 가평군 가평읍 장터2길12 204호,경기도 가평군 읍내리 405,37.82976594,127.5148873
02030,설악눈메골시장,상설장,경기도 가평군 설악면 신천중앙로 104-1,경기도 가평군 설악면 신천리 413-14,37.6773832,127.4921808
02030,청평여울시장,5일장,경기도 가평군 청평면 시장중앙로19,경기도 가평군 청평면 청평리 81-2,37.73476579,127.4158609
02010,능곡전통시장,5일장,경기도 고양시 덕양구 능곡로 12의 9,경기도 고양시 덕양구 토당동 347,37.62135086,126.8207792
02010,원당전통시장,상설장,경기도 고양시 덕양구 호국로 790번길 17,경기도 고양시 덕양구 성사동 697-14,37.65628101,126.8372528
02010,덕이동패션1번지,상설장,경기도 고양시 일산서구 덕이동 탄중로101번길 13,경기도 고양시 일산서구 덕이동 384-1,37.69302055,126.755787
02010,일산전통시장,상설장,경기도 고양시 일산서구 일청로 12번길 9,경기도 고양시 일산서구 일산동 617-20,37.68562256,126.7708264
02011,과천제일쇼핑,상설장,경기도 과천시 별양상가 2로 14,경기도 과천시 별양동 1-13,37.42732794,126.9929982
02011,과천서서울프라자,상설장,경기도 과천시 별양상가 2로 20,경기도 과천시 별양동 1-18,37.42682749,126.9925561
02006,광명새마을시장,상설장,경기도 광명시 광명로 831번지 4의1,경기도 광명시 광명동 342-12,37.47365412,126.8513997
02006,광명전통시장,상설장,경기도 광명시 광이로13번길 17-5,경기도 광명시 광명동 158-44,37.47994816,126.8561647
02025,경안시장,5일장,경기도 광주시 경안로25번길 14-1,경기도 광주시 경안동 33-16,37.40885891,127.25703
02012,구리전통시장,상설장,경기도 구리시 검배로 6번길 31,경기도 구리시 수택동 417,37.5995428,127.1399042
02016,군포역전시장,상설장,경기도 군포시 군포로538번길 18,경기도 군포시 당동 749,37.35490153,126.9469987
02016,산본시장,상설장,경기도 군포시 산본천로183번길 6 산본동,경기도 군포시 산본동 221-5,37.36967532,126.9381221
02023,통진시장,상설장,경기도 김포시 서암로84번길 29,경기도 김포시 서암리 721-8,37.69129472,126.5997011
02023,양곡오라니장터,상설장,경기도 김포시 양곡1로 54,경기도 김포시 양촌읍 양곡리 419-4 16호,37.65537267,126.6235251
02023,양곡시장,상설장,경기도 김포시 양촌읍 양곡1로 42-2,경기도 김포시 양촌읍 양곡리 415-6,37.65446358,126.6238085
02013,남양주 장현전통시장,5일장,경기도 남양주시 진접읍 장현로 77의100,경기도 남양주시 장현리 380-15,37.71761594,127.1808911
02008,동두천제일시장,상설장,경기도 동두천시 정장로 11-12,경기도 동두천시 생연동 823,37.90517392,127.0522232
02008,동두천시 중앙시장,상설장,경기도 동두천시 중앙로285번길 9,경기도 동두천시 생연동 607-27,37.90690224,127.0537404
02008,동두천큰시장,5일장,경기도 동두천시 큰시장로 52,경기도 동두천시 생연동 698-1,37.90049061,127.0520741
02008,세아프라자상가 전통시장,상설장,경기도 동두천시 큰시장로 64,경기도 동두천시 큰시장로 64,37.9007191,127.0505963
02005,청과물시장,상설장,경기도 부천시 경인로206번길 43,경기도 부천시 심곡본동 659,37.4815768,126.7779879
02005,고리울동굴시장,상설장,경기도 부천시 고리울로64번길 27,경기도 부천시 오정구 고강동 407,37.52584383,126.8226996
02005,역곡남부시장,상설장,경기도 부천시 부광로16번길 33,경기도 부천시 소사구 괴안동 107-8,37.48252978,126.8115377
02005,오정시장,상설장,경기도 부천시 부천로 470번길 50,경기도 부천시 오정동 582-30,37.52597405,126.7857048
02005,원미부흥시장,상설장,경기도 부천시 부천로96번길 80,경기도 부천시 원미동 119-4,37.49203038,126.7898181
02005,중동사랑시장,상설장,경기도 부천시 부흥로200번길 25,경기도 부천시 중동 724,37.49497529,126.7645791
02005,원종 종합시장,상설장,경기도 부천시 삼작로 394,경기도 부천시 원종동 372-1,37.51971159,126.805569
02005,부천상동시장,상설장,경기도 부천시 석천로60번길 51,경기도 부천시 상동 236-5,37.49235707,126.7642708
02005,원종중앙시장,상설장,경기도 부천시 성오로 124번길 47,경기도 부천시 원종동 209-5,37.52506508,126.8023169
02005,조공시장,상설장,경기도 부천시 소사구 범안로8번길 11,경기도 부천시 괴안동 40,37.48040752,126.8052447
02005,부천자유시장,상설장,경기도 부천시 소사구 자유로 33,경기도 부천시 소사구 심곡본동 543,37.4841112,126.7799422
02005,강남시장,상설장,경기도 부천시 옥산로154번길 21,경기도 부천시 도당동 276-4,37.50749709,126.7814664
02005,역곡상상시장,상설장,경기도 부천시 원미구 부일로749번길 31,경기도 부천시 원미구 역곡동 84-7,37.48757761,126.8118941
02005,부천제일시장,상설장,경기도 부천시 원종로85번길 84,경기도 부천시 원종동 296,37.52795189,126.8097229
02005,한신시장,상설장,경기도 부천시 은성로68번길 46,경기도 부천시 소사본동 200-1,37.47312398,126.7980162
02005,원미종합시장,상설장,경기도 부천시 조종로 49번길 21-3,경기도 부천시 원미동 97-12,37.49368229,126.7901781
02005,신흥시장,상설장,경기도 부천시 평천로 719,경기도 부천시 삼정동 314-13,37.51533797,126.7705826
02005,소사종합시장,상설장,경기도 부천시 호현로474번길 13-2,경기도 부천시 소사본동 78-12,37.47966315,126.7939541
02002,하대원공설시장,상설장,경기도 성남시 마지로 118,경기도 성남시 중원구 하대원동 266의1,37.42746648,127.1422367
02002,금호행복시장,상설장,경기도 성남시 분당구 내정로 165번길 38,경기도 성남시 분당구 수내동 32,37.37666085,127.1162393
02002,코끼리시장,상설장,경기도 성남시 분당구 내정로 166번길 7-6,경기도 성남시 분당구 수내동 56,37.37311168,127.1204218
02002,청구문화시장,상설장,경기도 성남시 분당구 내정로165번길 38,경기도 성남시 분당구수내동 32,37.37666085,127.1162393
02002,돌고래시장,상설장,경기도 성남시 분당구 내정로174번길 42 파크타운서안아파트,경기도 성남시 분당구 수내동 53,37.37153075,127.1221683
02002,현대프라자시장,상설장,경기도 성남시 분당구 돌마로 364,경기도 성남시 분당구 수내동 79-2,37.36998628,127.1236631
02002,분당종합시장,상설장,경기도 성남시 분당구 돌마로 366번길 42,경기도 성남시 분당구 수내동 83,37.36718028,127.1267485
02002,미금현대벤처빌,상설장,경기도 성남시 분당구 돌마로90번길 8,경기도 성남시 분당구 구미동 26-1,37.3492844,127.1117738
02002,미래타운 제2종합시장,상설장,경기도 성남시 분당구 불정로376번길 31,경기도 성남시 분당구 서현동 311,37.37225503,127.1388711
02002,범한프라자시장,상설장,경기도 성남시 분당구 불정로376번길 37 서현동,경기도 성남시 분당구 서현동 312-3,37.3716295,127.1394444
02002,미래그린시장,상설장,경기도 성남시 분당구 불정로386번길 10 서현동 효자촌미래타운아파트,경기도 성남시 분당구 서현동 307,37.37341644,127.1380364
02002,동신종합시장,상설장,경기도 성남시 분당구 수내동 돌마로 361,경기도 성남시 분당구 수내동 돌마로 361,37.37062313,127.1229661
02002,야탑에이스코아시장,상설장,경기도 성남시 분당구 야탑로 64,경기도 성남시 분당구 야탑동 502,37.40950295,127.1259785
02002,우성종합상가,상설장,경기도 성남시 분당구 중앙공원로40번길 42,경기도 성남시 분당구 서현동 94-3,37.37818238,127.1323819
02002,금광시장,상설장,경기도 성남시 산성대로426번길 5,경기도 성남시 중원구 금광동 4622,37.45003252,127.1599062
02002,코코프라자,상설장,경기도 성남시 서현로210번길 20,경기도 성남시 서현동 248-5번지 1층,37.38585743,127.124037
02002,성남중앙시장,상설장,경기도 성남시 수정구 수정로 109,경기도 성남시 수정구 태평동 3681,37.44139765,127.132117
02002,숯골신흥시장,상설장,경기도 성남시 수정구 수정로214번길 6,경기도 성남시 수정구 신흥동 3436-10,37.44397935,127.1433869
02002,현대시장,상설장,경기도 성남시 수정구 수정북로18,경기도 성남시 수정구 태평동 3683,37.44170136,127.1319785
02002,분당현대시장,상설장,경기도 성남시 중앙공원로40번길 8,경기도 성남시 서현동 94번지,37.37973404,127.1301894
02002,단대전통시장,상설장,경기도 성남시 중원구 광명로289,경기도 성남시 중원구 금광동 10,37.44434033,127.1583278
02002,모란전통기름시장,상설장,경기도 성남시 중원구 둔촌대로 83번길 7,경기도 성남시 중원구 성남동 4222,37.43090769,127.1280077
02002,은행시장,상설장,경기도 성남시 중원구 산성대로 526,경기도 성남시 중원구 은행2동 1553,37.45758554,127.1644853
02002,성남남한산성시장,상설장,경기도 성남시 중원구 산성대로518번길 7,경기도 성남시 중원구 은행동 1565 1,37.45695509,127.1644337
02002,모란종합시장,5일장,경기도 성남시 중원구 성남대로 1127,경기도 성남시 중원구 성남동 4182,37.43033963,127.1288869
02002,모란시장,상설장,경기도 성남시 중원구 성남대로 1127,경기도 성남시 중원구 성남동 4182,37.43033963,127.1288869
02002,상대원시장,상설장,경기도 성남시 중원구 희망로344번길 6,경기도 성남시 중원구 상대원동 2985-1,37.4359794,127.1587721
02001,권선종합시장,상설장,경기도 수원시 권선구 세권로 185 권선동,경기도 수원시 권선동 1051,37.25609894,127.0245796
02001,구매탄시장,상설장,경기도 수원시 영통구 매여울로53번길 50-1 매탄동,경기도 수원시 영통구 매탄동 172-72,37.27260269,127.0419222
02001,정자시장,상설장,경기도 수원시 장안구 수성로261번길 16 정자동,경기도 수원시 장안구 정자동 73-10,37.29069027,127.0008813
02001,장안문거북시장,상설장,경기도 수원시 장안구 수성로382번길 24 영화동,경기도 수원시 장안구 영화동 250-1,37.29314857,127.0139656
02001,연무시장,상설장,경기도 수원시 장안구 월드컵로428번길 10 연무동,경기도 수원시 장안구 연무동 249,37.29396045,127.0259771
02001,조원시장,상설장,경기도 수원시 장안구 조원로89번길 8 조원동,경기도 수원시 장안구 조원동 743-7,37.30078361,127.0153385
02001,북수원시장,상설장,경기도 수원시 장안구 파장로82번길 9 파장동,경기도 수원시 장안구 파장동 572-35,37.30710826,126.9921315
02001,매산시장,상설장,경기도 수원시 팔달구 권선로 477 매산로2가,경기도 수원시 팔달구 매산로2가 90,37.26457142,127.0033544
02001,화서시장,상설장,경기도 수원시 팔달구 동말로 72 화서동,경기도 수원시 팔달구 화서동 97-1,37.27857804,127.0020898
02001,수원역전시장,상설장,경기도 수원시 팔달구 매산로 2-10 매산로1가,경기도 수원시 팔달구 매산로1가 57-3,37.26630163,127.0023389
02001,미나리광시장,상설장,경기도 수원시 팔달구 수원천로 266-4 지동,경기도 수원시 팔달구 지동 400-12,37.27727659,127.0196391
02001,구천동공구시장,상설장,경기도 수원시 팔달구 수원천로199번길 5 구천동,경기도 수원시 팔달구 구천동 86-1,37.27212246,127.0173593
02001,수원영동시장,상설장,경기도 수원시 팔달구 수원천로255번길 6 영동,경기도 수원시 팔달구 영동 8,37.27681569,127.0186603
02001,못골종합시장,상설장,경기도 수원시 팔달구 수원천로258번길 10-12 지동,경기도 수원시 팔달구 지동 387-1,37.27602819,127.0207728
02001,남문패션1번가시장,상설장,경기도 수원시 팔달구 정조로758번길 24 영동,경기도 수원시 팔달구 영동 43-5,37.27562604,127.0181079
02001,팔달문시장,상설장,경기도 수원시 팔달구 정조로770번길 17 영동,경기도 수원시 팔달구 영동 6-14,37.27685617,127.0178859
02001,지동시장,상설장,경기도 수원시 팔달구 팔달문로 19 지동,경기도 수원시 팔달구 지동 402-2,37.27788344,127.0196281
02001,시민시장,상설장,경기도 수원시 팔달구 팔달문로4번길 19 영동,경기도 수원시 팔달구 영동 10-18,37.27668388,127.0179847
02001,남문로데오시장,상설장,경기도 수원시 팔달구 행궁로 88 교동,경기도 수원시 팔달구 교동 3-6,37.27463697,127.0155247
02015,시화공구상가,상설장,경기도 시흥시 공단1대로 204,,37.33771107,126.7247096
02015,도일시장,5일장,경기도 시흥시 도일로 100의 4,경기도 시흥시 거모동 1669-22,37.339515,126.7840757
02015,시흥삼미시장상인회,상설장,경기도 시흥시 삼미시장2길 35,경기도 시흥시 신천동 738-4,37.44040747,126.7838201
02015,오이도 전통수산시장,상설장,경기도 시흥시 오이도로 167 173,경기도 시흥시 정왕동 2003-8 2003-12,37.34588131,126.6882099
02015,정왕전통시장,상설장,경기도 시흥시 정왕시장길 51 52,경기도 시흥시 정왕동 1202 1203,37.34580604,126.748569
02009,안산시민시장,5일장,경기도 안산시 단원구 화랑로 149,경기도 안산시 단원구 초지동 604-4,37.32537215,126.8050881
02009,신안프라자,상설장,경기도 안산시 상록구 반석로 54,,37.29647466,126.8658209
02009,월드프라자 전통시장,상설장,경기도 안산시 상록구 본삼로 60,경기도 안산시 상록구 본오동 872,37.30055499,126.8664493
02009,안산패션타운전통시장,상설장,경기도 안산시 상록구 삼리로 45,경기도 안산시 상록구 사동 1530-1,37.30498141,126.8446652
02009,신안코아전통시장,상설장,경기도 안산시 상록구 석호로 315,경기도 안산시 상록구 본오동 871,37.29374921,126.8659882
02009,안산다농마트전통시장,상설장,경기도 안산시 상록구 예술광장로 1,경기도 안산시 상록구 월피동 445-1,37.32836149,126.8442393
02009,스타프라자 전통시장,상설장,경기도 안산시 상록구 화랑로 513,경기도 안산시 상록구 성포동 583,37.32081608,126.8447219
02022,안성맞춤시장,상설장,경기도 안성시 시장길 37,경기도 안성시 서인동 13의1,37.00663083,127.2703533
02022,일죽시장상인회,상설장,경기도 안성시 일죽면 금일로 467 일원,경기도 안성시 일죽면 송천리 15-18,37.09336891,127.4784223
02022,안성중앙시장,5일장,경기도 안성시 장기로45번길 30,경기도 안성시 서인동 81,37.00656174,127.2687958
02022,죽산시장,5일장,경기도 안성시 죽산면 중서길 8-9,경기도 안성시 죽산면 죽산리 439-3,37.07598807,127.4233891
02004,안양관양시장,상설장,경기도 안양시 동안구 관평로 336번길 31,경기도 안양시 동안구 관양동 1407-8,37.40522465,126.95931
02004,안양호계종합시장,상설장,경기도 안양시 동안구 흥안대로113번길 34,경기도 안양시 동안구 호계1동 997,37.37253625,126.9592998
02004,중앙시장,상설장,경기도 안양시 만안구 냉천로 196,경기도 안양시 만안구 안양4동 676-44,37.39756839,126.9196682
02004,안양중앙인정시장,상설장,경기도 안양시 만안구 냉천로185번길 8,경기도 안양시 만안구 안양동 711-280,37.39648476,126.9195692
02004,석수시장,상설장,경기도 안양시 만안구 석천로 171번길 20,경기도 안양시 만안구 석수동 287,37.4128602,126.9079976
02004,중부농수산물시장,상설장,경기도 안양시 만안구 안양로248번길23,경기도 안양시 만안구 안양동 622-337,37.39590755,126.9256147
02004,안양박달시장,상설장,경기도 안양시 만안구 양화로 132-3,경기도 안양시 만안구 박달동 21-8,37.40464622,126.9096186
02004,안양남부시장,상설장,경기도 안양시 만안구 장내로 140번길 51,경기도 안양시 만안구 안양동 622-378,37.39593462,126.9249532
02031,양동쌍학시장,5일장,경기도 양평군 양동면 학둔지아래길 76 일원,경기도 양평군 양동면 쌍학리 227-3 일원,37.42017367,127.7531969
02031,양수리전통시장상인회,상설장+5일장,경기도 양평군 양서면 양수로 150번길 3-15 일원,경기도 양평군 양서면 양수리 1060 일원,37.54507333,127.3197948
02031,양평물맑은시장상인회,5일장,경기도 양평군 양평읍 양평장터길 15 일원,경기도 양평군 양평읍 양근리 166-14,37.49093212,127.492562
02031,용문천년시장,5일장,경기도 양평군 용문면 용문시장2길 11 일원,경기도 양평군 용문면 다문리 307-5 일원,37.48396323,127.5947559
02028,여주한글시장,5일장,경기도 여주시 세종로14번길 24-1,경기도 여주시 하동 268-4,37.29755119,127.6342892
02029,전곡재래시장,상설장,경기도 연천군 전곡읍 전곡로172번길 4-15,경기도 연천군 전곡읍 전곡리 479-30,38.02715987,127.068161
02014,오산 오색시장,5일장,경기도 오산시 오산로 272번길 21,경기도 오산시 오산동 853-27,37.15132402,127.0709411
02019,죽전로데오상점가,상설장,경기도 용인시 수지구 용구대로 2725의1,경기도 용인시 수지구 전동 1003-53,37.32876707,127.1080591
02019,용인중앙시장,5일장,경기도 용인시 처인구 금령로107번길 13,경기도 용인시 처인구 김량장동 137-1,37.23671447,127.2078585
02017,부곡도깨비시장,상설장,경기도 의왕시 부곡시장길 18,경기도 의왕시삼동 192-554,37.31946613,126.9507058
02003,의정부 청과야채시장,상설장,경기도 의정부시 시민로 157번길,경기도 의정부시 의정부동 30-8,37.73855004,127.0527082
02003,의정부시장,상설장,경기도 의정부시 시민로143번길 40,경기도 의정부시 의정부1동 148-5,37.73945051,127.0511829
02003,의정부제일시장,상설장,경기도 의정부시 태평로 73번길 20,경기도 의정부시 의정부동 160,37.74012663,127.0500679
02021,사기막골 도자기시장,상설장,경기도 이천시 경충대로2993번길 24 사음동,경기도 이천시 사음동 509,37.2936788,127.411746
02021,장호원시장번영회,5일장,경기도 이천시 장호원읍 장감로77번길 14,경기도 이천시 장호원읍 오남리 3-1,37.11808847,127.6312509
02021,관고전통시장,5일장,경기도 이천시 중리천로 31번길 22,경기도 이천시 관고동 10-13,37.28081972,127.4403608
02020,광탄시장,5일장,경기도 파주시 광탄면 해음로 1120번길,경기도 파주시 광탄면 신산리 222-7,37.78146068,126.8484764
02020,금촌전통시장,상설장+5일장,경기도 파주시 금정 24길 18-6,경기도 파주시 금촌동 64-19,37.76261525,126.7738771
02020,금촌명동로시장,상설장,경기도 파주시 명동길 53,경기도 파주시 금촌동 323-1,37.76330716,126.7733425
02020,문산자유시장,상설장,경기도 파주시 문산읍 문향로 57,경기도 파주시 문산읍 문산리 10-23,37.85672748,126.7839421
02020,금촌문화로시장,상설장,경기도 파주시 문화로 89-1,경기도 파주시 금촌동 66-4,37.76224813,126.7748779
02020,적성전통시장,5일장,경기도 파주시 적성면 청송로 1023,경기도 파주시 적성면 마지리 46-8,37.9546091,126.9186694
02020,봉일천 전통시장,5일장,경기도 파주시 조리읍 봉천로 33-1,경기도 파주시 조리읍 봉일천리 168-4,37.74353082,126.8078476
02007,서정리시장,5일장,경기도 평택시 서정역로 37,경기도 평택시 서정동 328-35,37.05742105,127.0555086
02007,안중시장 상인회,상설장+5일장,경기도 평택시 안중읍 안현로서3길 34,경기도 평택시 안중읍 안중리 269-3,36.98766163,126.927666
02007,평택국제 중앙시장,상설장,경기도 평택시 중앙시장로 16,경기도 평택시 신장동 317-70,37.07987951,127.0521948
02007,송탄시장,5일장,경기도 평택시 탄현로346번길 38,경기도 평택시 지산동 754-28,37.08145628,127.0567324
02007,통복시장 상인회,5일장,경기도 평택시 통복시장로25번길 10,경기도 평택시 통복동 70-29,36.99782047,127.0850782
02027,운천시장,5일장,경기도 포천시 영북면 영북로 177번길 25,경기도 포천시 영북면 운천리 531-5,38.08994227,127.2722253
02027,포천일동전통시장,상설장,경기도 포천시 일동면 화동로 1090-14,경기도 포천시 일동면 1033번지 13-9,37.95977517,127.3194839
02018,덕풍전통시장,5일장,경기도 하남시 수리북로 22,경기도 하남시 덕풍동 328-12,37.54153872,127.202919
02018,신장전통시장,상설장,경기도 하남시 신장1로3번길 42,경기도 하남시 신장동 신장전통시장,37.53788732,127.2070276
02024,남양시장,상설장+5일장,경기도 화성시 남양읍 남양시장로 61일원,경기도 화성시 남양리 1165-25,37.2090298,126.8159971
02024,궁평항수산물 직판장,상설장,경기도 화성시 서신면 궁평항로 1049-24,경기도 화성시 서신면 궁평리689,37.11602908,126.6812748
02024,사강시장,5일장,경기도 화성시 송산면 사강로 183-1,경기도 화성시 송산면 사강리 663-1,37.21330187,126.7360036
02024,조암시장,5일장,경기도 화성시 우정읍 조암남로 8,경기도 화성시 우정읍 조암리 311-3,37.082198,126.8170415
02024,발안만세시장,5일장,경기도 화성시 향남읍 평2길 7,경기도 화성시 향남읍 평리 81-51,37.13146319,126.9094607
12009,거제읍내시장,5일장,경상남도 거제시 거제읍내로2길 28,경상남도 거제시 거제면 서상리 325-2번지,34.85055855,128.590311
12009,한라프라자,상설장,경상남도 거제시 거제중앙로 1906 고현동,경상남도 거제시 고현동 961-153,34.88820439,128.6235602
12009,회원프라자,상설장,경상남도 거제시 고현로11길 18,경상남도 거제시 고현동961-59,34.88902769,128.6248292
12009,옥수동새시장,상설장,경상남도 거제시 능포로134-2,경상남도 거제시 능포동 680 7,34.87539656,128.7319142
12009,옥수시장,상설장,경상남도 거제시 옥수로2길 10,경상남도 거제시 능포동 633-215,34.87534443,128.7308732
12009,옥현상가,상설장,경상남도 거제시 옥포로 250,경상남도 거제시 옥포동1293-1,34.89691724,128.6899271
12009,옥포국제시장,상설장,경상남도 거제시 옥포로19길 12-1,경상남도 거제시 옥포동 525-19,34.8943651,128.6895409
12009,신부시장,상설장,경상남도 거제시 장승포로 49,경상남도 거제시 장승포동 283-99,34.86775934,128.7295182
12009,거제고현시장,상설장,경상남도 거제시 중앙로 1883-2,경상남도 거제시 고현동 98-27,34.88625809,128.6236545
12009,장평종합시장,상설장,경상남도 거제시장평로37,경상남도 장평동 56-1,34.89086168,128.6131049
12019,거창시장,상설장+5일장,경상남도 거창군 거창읍 중앙로 140,경상남도 거창군 중앙리 154-12,35.68683071,127.9140377
12014,고성공룡시장,상설장,경상남도 고성군 고성읍 성내로112번길 75-8,경상남도 고성군 고성읍 성내리 212-3,34.97266192,128.32338
12014,고성시장,상설장+5일장,경상남도 고성군 고성읍 중앙로25번길57,경상남도 고성군 고성읍 서외리 1-6,34.97730013,128.3230484
12014,영오시장,5일장,경상남도 고성군 영오면 영산리 영회로 527-9,경상남도 고성군 영오면 영산리 232-1,35.10895397,128.2376863
12014,배둔시장,5일장,경상남도 고성군 희화면 배둔로31번길 5,경상남도 고성군 회화면 배둔리 826-2,35.05742987,128.3688699
12007,외동전통시장,상설장,경상남도 김해시 내외중앙로 33,경상남도 김해시 외동 1254-2,35.2329368,128.8660065
12007,삼방시장,상설장,경상남도 김해시 삼안로 255번길 안길 6-12,경상남도 김해시 삼안로 삼방동 665-8,35.25078422,128.9096895
12007,장유전통시장,5일장,경상남도 김해시 장유로 287-22,경상남도 김해시 무계동 189-3,35.20056852,128.8148083
12007,진례전통시장,5일장,경상남도 김해시 진례면 송현로 6-1,경상남도 김해시 진례면 송정리 239-3,35.24885406,128.7489257
12007,진영전통시장,5일장,경상남도 김해시 진영읍 진영로160번길 13-8,경상남도 김해시 진영읍 진영리 235-16,35.30231431,128.7306267
12007,(사)김해동상시장,상설장,경상남도 김해시 호계로 517번길 5-13,경상남도 김해시 동상동 877-2,35.23623779,128.8838588
12015,남면공설시장,5일장,경상남도 남해군 남면 남서대로 785-4,경상남도 남해군 남면 당항리 1381-5,34.77094715,127.8853542
12015,남해전통시장,5일장,경상남도 남해군 남해읍 화전로110,경상남도 남해군 남해읍 북변리 246-1,34.84014684,127.8944844
12015,이동공설시장,5일장,경상남도 남해군 이동면 무림로 63번길 9,경상남도 남해군 이동면 무림리,34.80114029,127.9538265
12008,무안시장,상설장+5일장,경상남도 밀양시 무안면 사명로510-1,경상남도 밀양시 무안면 무안리 814-2,35.4703238,128.6520984
12008,송백시장,5일장,경상남도 밀양시 산내면 산내로 346-1,경상남도 밀양시 산내면 송백리 1319-13,35.58629962,128.8817019
12008,송지시장,5일장,경상남도 밀양시 삼랑진읍 외송3길 8-1,경상남도 밀양시 삼랑진읍 송지리359의15,35.39686785,128.8371957
12008,밀양아리랑시장,5일장,경상남도 밀양시 상설시장1길11,경상남도 밀양시 내일동 583-1,35.49305872,128.7525543
12008,내일전통시장,5일장,경상남도 밀양시 상설시장3길 18-6,경상남도 밀양시 내일동 174-9,35.4933363,128.753309
12008,수산시장,5일장,경상남도 밀양시 하남읍 시서상가길 5,경상남도 밀양시 하남읍 수산리815-18,35.37422567,128.7087807
12006,곤양종합시장,5일장,경상남도 사천시 곤양면 남산로 65,경상남도 사천시 곤양면 남문외리 48-4,35.05653289,127.9633464
12006,삼천포종합시장,5일장,경상남도 사천시 동금2길 15,경상남도 사천시 동금동88-4,34.93234419,128.0785447
12006,사천읍시장,상설장,경상남도 사천시 사천읍 시장1길 16,경상남도 사천시 정의리 392-2,35.08405911,128.0890111
12006,삼천포전통시장,상설장,경상남도 사천시 어시장길 46,경상남도 사천시 서동 311-112,34.927174,128.069893
12006,삼천포용궁수산시장,상설장,경상남도 사천시 어시장길 64,경상남도 사천시 동동 485-2,34.92743494,128.0717635
12006,완사시장,상설장+5일장,경상남도 사천시 완사2길 12,경상남도 사천시 정곡리 842,35.13121757,127.9763433
12006,서포시장,5일장,경상남도 사천시 자구로 473,경상남도 사천시 서포면 구평리 644-3,35.00686674,127.9779068
12006,삼천포중앙시장,5일장,경상남도 사천시 중앙시장2길 37,경상남도 사천시 선구동17-4,34.92892254,128.0767148
12017,단성시장,5일장,경상남도 산청군 단성면 목화로 968번길 17,경상남도 산천군 단성면 성내리 178,35.29792258,127.9580609
12017,산청시장,상설장+5일장,경상남도 산청군 산청읍 중앙로 16-1,경상남도 산청군 산청읍 산청리 252-2,35.41530189,127.8762282
12017,생초시장,5일장,경상남도 산청군 생초로 35-30,경상남도 산청군 생초면 어서리 259-14,35.49242579,127.8360227
12017,덕산시장,5일장,경상남도 산청군 시천면 남명로 188-5 덕산시장,경상남도 산청군 시천면 사리 931-3,35.27703295,127.8377441
12017,단계시장,5일장,경상남도 신등면 신차로 500-3,경상남도 산청군 신동면 단계리 784,35.37711924,128.011143
12010,덕계종합상설시장,상설장,경상남도 양산시 덕계2길 7,경상남도 양산시 덕계동 754-1,35.36975076,129.147156
12010,석계시장,5일장,경상남도 양산시 상북면 삼계4길 2,경상남도 양산시 상북면 석계리 34-9,35.41957336,129.0639378
12010,서창시장,5일장,경상남도 양산시 서창서2길 5,경상남도 양산시 삼호동 524,35.41628296,129.1720148
12010,양산남부시장상가,상설장+5일장,경상남도 양산시 장터3길 7,경상남도 양산시 중부동 407-3,35.34338923,129.0370453
12010,양산남부시장,상설장+5일장,경상남도 양산시 중앙로 133번지,경상남도 양산시 중부동 423-5,35.3424443,129.0372371
12010,양산북부시장,상설장,경상남도 양산시 중앙로 232,경상남도 양산시 북부동 148-19,35.35044919,129.0411959
12010,신평시장,5일장,경상남도 양산시 하북면 신평강변3길 11,경상남도 양산시 하북면 순지리 575,35.49059837,129.0858571
12011,신반시장,5일장,경상남도 의령군 부림면 신번로9길 11,경상남도 의령군 부림면 신반리519-3,35.46811354,128.3250368
12011,의령시장,5일장,경상남도 의령군 의령읍 의병로18길 13,경상남도 의령군 의령읍 중동리 386-7,35.31851733,128.2606589
12003,금곡시장,상설장+5일장,경상남도 진주시 금곡면 구암두문로 1021-9,경상남도 진주시 금곡면 두문리 639-1,35.09075047,128.1862309
12003,대곡시장,상설장+5일장,경상남도 진주시 대곡면 진의로 1079번길 6,경상남도 진주시 대곡면 광석리 321,35.26370062,128.1685559
12003,동부종합상가,상설장,경상남도 진주시 대신로299번길 7,경상남도 진주시 상대동193-1,35.18704474,128.1162092
12003,진주자유시장,상설장,경상남도 진주시 도동천로 95,경상남도 진주시 상대동 276-9,35.18016822,128.1103048
12003,일반성시장,5일장,경상남도 진주시 동부로1993번길 27,경상남도 진주시 일반성면 창촌리 92,35.17122439,128.2822068
12003,문산시장,5일장,경상남도 진주시 문산읍 소문길 68,경상남도 진주시 문산읍 소문리 112-6,35.17046506,128.1691574
12003,평거한보하이타운,상설장,경상남도 진주시 순환로 553번길 7,경상남도 진주시 평거동 301-1,35.17265107,128.0592567
12003,이현종합상가,상설장,경상남도 진주시 신안로 165,경상남도 진주시 이현동 21-3,35.19199129,128.0661334
12003,진주중앙시장,상설장,경상남도 진주시 진양호로547번길 8-1 일원,경상남도 진주시 대안동 8-600,35.19392285,128.0848889
12003,진주논개시장,상설장,경상남도 진주시 진양호로569번길 12,경상남도 진주시 장대동 58-8,35.19506585,128.0872233
12003,진주동성상가,상설장,경상남도 진주시 진주대로 901,경상남도 진주시 강남동 219,35.18092171,128.0893331
12003,천전시장,상설장,경상남도 진주시 진주대로 954번길 4,경상남도 진주시 칠암동 306-1,35.18505598,128.0885806
12003,진주청과시장,상설장,경상남도 진주시 촉석로 226번길 3,경상남도 진주시 수정동 25-28,35.1962457,128.0866851
12013,남지시장,5일장,경상남도 창녕군 남지읍 본동길4,경상남도 창녕군 남지읍 남지리 531,35.38911636,128.4824933
12013,영산시장,5일장,경상남도 창녕군 영산면 신영산로56,경상남도 창녕군 영산면 성내리 516-4,35.45704192,128.5325981
12013,이방정기시장,5일장,경상남도 창녕군 이방면 이방대학로35-1,경상남도 창녕군 이방면 거남리 43-5,35.60141193,128.3828417
12013,창녕상설시장,5일장,경상남도 창녕군 창녕읍 시장길 66,경상남도 창녕군 창녕읍 164-38,35.54007277,128.4973587
12001,마산구암시장,상설장,경상남도 창원시 마산 회원구 구암남 14길 8,경상남도 창원시 마산 회원구 구암동 87,35.24953898,128.5996435
12001,동마산시장,상설장,경상남도 창원시 마산 회원구 합성남8길 76,경상남도 창원시 마산 회원구 합성동 326-1,35.24003661,128.5875449
12001,합성옛길시장,상설장,경상남도 창원시 마산 회원구 합성옛길 77,경상남도 창원시 마산 회원구 합성동 732-7,35.23534201,128.5820118
12001,회성종합시장,상설장,경상남도 창원시 마산 회원구 회성동 시장1길 16,경상남도 창원시 마산회원구 회성동 450-2,35.2329295,128.5594101
12001,마산부림시장,상설장,경상남도 창원시 마산함포구 3 15대로 352,경상남도 창원시 마산합포구 부림동 32,35.20578871,128.5734587
12001,부림상시장,상설장,경상남도 창원시 마산합포구 동서서4길 2-15,경상남도 창원시 마산합포구 부림동 83-24,35.2057733,128.5724461
12001,신마산시장,상설장,경상남도 창원시 마산합포구 문화동15길 13,경상남도 창원시 마산합포구 해운동 64,35.18109688,128.5617023
12001,신마산반월시장,상설장,경상남도 창원시 마산합포구 반월남1길 18-16,경상남도 창원시 마산합포구 반월동 84-13,35.18965944,128.5611826
12001,마산어시장,상설장,경상남도 창원시 마산합포구 복요리로 7,경상남도 창원시 마산합포구 동성동 314,35.20376172,128.578956
12001,북마산가구시장,상설장,경상남도 창원시 마산합포구 북성로 33-1,경상남도 창원시 마산합포구 추산동 1-57,35.210354,128.5722813
12001,산호시장,상설장,경상남도 창원시 마산합포구 산호시장길 18,경상남도 창원시 마산합포구 산호동 28-8,35.21837357,128.581716
12001,북마산중앙시장,상설장,경상남도 창원시 마산합포구 상남시장로3,경상남도 창원시 마산합포구 상남동 40-1,35.21603536,128.5711735
12001,마산수산시장,상설장,경상남도 창원시 마산합포구 수산2길 194,경상남도 창원시 마산합포구 남성동 229-1,35.20181664,128.5789097
12001,정우새어시장,상설장,경상남도 창원시 마산합포구 어시장7길126,경상남도 창원시 마산합포구 동성동 313,35.20410405,128.5787114
12001,월영대시장,상설장,경상남도 창원시 마산합포구 월영남1길 13,경상남도 창원시 마산합포구 해운동14-15,35.17927496,128.5577604
12001,대동씨코아상가시장,상설장,경상남도 창원시 마산합포구 월영동로8,경상남도 창원시 마산합포구 해운동 37-4,35.1797591,128.5624756
12001,진동전통시장,5일장,경상남도 창원시 마산합포구 진동면 진동시장길 62,경상남도 창원시 마산합포구 진동면 진동리264-3,35.11330584,128.4873242
12001,진동시장,5일장,경상남도 창원시 마산합포구 진동시장길 43-7,경상남도 창원시 마산합포구 진동면 진동리237-11,35.1135948,128.4879255
12001,구암현대시장,상설장,경상남도 창원시 마산회원구 구암서5길 15,경상남도 창원시 마산회원구 구암1동 18-2,35.24823512,128.5907276
12001,서마산시장,상설장,경상남도 창원시 마산회원구 석전남16길64,경상남도 창원시 마산회원구 석전동 155-1,35.22902031,128.5691291
12001,마산역번개시장,상설장,경상남도 창원시 마산회원구 석전동 16길,경상남도 창원시 마산회원구 석전1동 43,,
12001,석전시장,상설장,경상남도 창원시 마산회원구 석전동 6길 32,경상남도 창원시 마산회원구 석전동 257-1,35.23041122,128.5749057
12001,경민인터빌상가,상설장,경상남도 창원시 마산회원구 양덕북12길 113,경상남도 창원시 마산 회원구 양덕북 12가-113,35.23190306,128.5838191
12001,성원3차종합상가,상설장,경상남도 창원시 성산구 대암로80,경상남도 창원시 성산구 대방동 355,35.21499999,128.7052999
12001,대방덕산1차상가,상설장,경상남도 창원시 성산구 대정로 131,경상남도 창원시 성산구 대방동 356,35.21361897,128.7068915
12001,대동훼미리코아상가,상설장,경상남도 창원시 성산구 대정로 138,경상남도 창원시 성산구 대방동 358,35.21174899,128.7076298
12001,성원그랜드쇼핑,상설장,경상남도 창원시 성산구 동산로 124,경상남도 창원시 성산구 상남동 45-1,35.21937354,128.6915928
12001,상남시장,5일장,경상남도 창원시 성산구 마디미로28,경상남도 창원시 성산구 상남동 16,35.22221487,128.68338
12001,경창상가,상설장,경상남도 창원시 성산구 상남로 67,경상남도 창원시 성산구 상남동 73-5,35.22016512,128.6793262
12001,창원코아상사,상설장,경상남도 창원시 성산구 상남로 71,경상남도 창원시 성산구 상남동 73-4,35.22044242,128.6795415
12001,유신종합상가,상설장,경상남도 창원시 성산구 신촌로 21,경상남도 창원시 성산구 신촌동 15-6,35.20756147,128.6267807
12001,양곡종합상가,상설장,경상남도 창원시 성산구 신촌로102,경상남도 창원시 성산구 신촌동 33-2,35.20085109,128.628329
12001,중앙시장(창원중앙시장),상설장,경상남도 창원시 성산구 외동반림로 126길50,경상남도 창원시 성산구 중앙동 8-10,35.23017119,128.6719386
12001,덕산그린피아,상설장,경상남도 창원시 성산구 용지로 64,경상남도 창원시 성산구 중앙동 98-6,35.22168087,128.6760246
12001,가음시장대상가,상설장,경상남도 창원시 성산구 원이대로 883번지 15-24,,35.2080513,128.6969918
12001,가음정시장,상설장,경상남도 창원시 성산구 원이대로863번길24,경상남도 창원시 성산구 가음동 21-20,35.20828431,128.6977985
12001,반송시장,상설장,경상남도 창원시 성산구 윈이대로 473번길 20-11,경상남도 창원시 성산구 반림동 17-13,35.23513386,128.6710497
12001,동성올림픽타운,상설장,경상남도 창원시 성산구 중앙대로 77,경상남도 창원시 성산구 중앙동 97-2,35.22223335,128.6777326
12001,창원캔버라상가,상설장,경상남도 창원시 성산구 중앙대로61번길 4,경상남도 창원시 성산구 중앙동97-6,35.22123302,128.6768275
12001,사파동성종합상가,상설장,경상남도 창원시 성산구 창이대로 733,경상남도 창원시 성산구 사파동 93,35.21947669,128.7021885
12001,기산프라자,상설장,경상남도 창원시 오동동14길 29,경상남도 창원시 오동동 18-61,35.20526975,128.5808143
12001,명곡종합상가,상설장,경상남도 창원시 의창구 명서로116번길 20,경상남도 창원시 의창구 명서동 75-16,35.2484874,128.6462193
12001,대동중앙시장,상설장,경상남도 창원시 의창구 반계로 93,경상남도 창원시 의창구 팔용동124-4,35.25360735,128.6158353
12001,봉곡시장,상설장,경상남도 창원시 의창구 봉곡로111번길 16,경상남도 창원시 의창구 봉곡동145-1,35.24696954,128.6719711
12001,소계시장,상설장,경상남도 창원시 의창구 소계로 83-6,경상남도 창원시 의창구 소계동83-6,35.25675876,128.5989657
12001,소계옛길시장,상설장,경상남도 창원시 의창구 소계로 99-4,경상남도 창원시 의창구 소계동 723-15,35.25791345,128.5982669
12001,토월복합상가시장,상설장,경상남도 창원시 의창구 신월로 42,경상남도 창원시 의창구 실월동68-1,35.22803688,128.6919388
12001,롯데종합상가,상설장,경상남도 창원시 의창구 용지로225,경상남도 창원시 의창구 용호동 63,35.2340375,128.685432
12001,명서시장,상설장,경상남도 창원시 의창구 원이대로 189번길 20,경상남도 창원시 명서동 45-10,35.24860588,128.6447641
12001,창원도계부부시장,상설장,경상남도 창원시 의창구 원이대로 69번길 20,경상남도 창원시 의창구 도계동 400-1,35.25721476,128.6371392
12001,북동공설시장,상설장,경상남도 창원시 의창구 의안로 49번길 30,경상남도 창원시 의창우 북동 249-1,35.26618055,128.6206956
12001,소답시장,5일장,경상남도 창원시 의창구 의안로49번길 31-7,경상남도 창원시 의창구 북동 246 6,35.2657462,128.6207603
12001,창원기계공구상가,상설장,경상남도 창원시 의창구 창원대로 400,경상남도 창원시 팔용동 16-1,35.23376746,128.6410782
12001,지귀시장,상설장+5일장,경상남도 창원시 의창구 창이대로 205번길8-3,경상남도 창원시 의창구 봉곡동 80-14,35.24581106,128.6598468
12001,봉곡프라자상가,상설장,경상남도 창원시 의창구 창이대로205번길 5,경상남도 창원시 의창구 봉곡동61-10,35.24543957,128.6595184
12001,경화시장,5일장,경상남도 창원시 진해구 경화로 38번길,경상남도 창원시 진해구 경화동 906,35.15705817,128.6903949
12001,진해중앙시장,상설장,경상남도 창원시 진해구 벚꽃로 60번길 19-4,경상남도 창원시 진해구 벚꽃로 화천동 60-14,35.15108231,128.6652503
12001,마천시장,5일장,경상남도 창원시 진해구 웅동로 57,경상남도 창원시 진해구 마천동 131-22,35.12538771,128.7828095
12001,웅천시장,5일장,경상남도 창원시 진해구 웅천중로56번길 8,경상남도 창원시 진해구 성내동 327,35.11101903,128.7509026
12001,진해중부시장,상설장,경상남도 창원시 진해구 중초로 20,경상남도 창원시 진해구 경화동 1164-1,35.15507185,128.681561
12001,대동그린코아상가,상설장,경상남도 창원시 창원천로 292,경상남도 창원시 반지동 23,35.24497351,128.6698901
12001,합성대로상가,상설장,경상남도 창원시 회원구 3 15대로 747의1,경상남도 창원시 회원구 합성동 85-8,35.23893191,128.5824166
12001,코오롱타운상가,상설장,경상남도 창원시 회원구 내서읍 호원로361-2,경상남도 창원시 회원구 내서읍 호계리 10,35.26570599,128.5256081
12001,역전통합시장,상설장,경상남도 창원시 회원구 석전동15길 23,경상남도 창원시 회원구 석천2동 226-2,35.2361472,128.5794639
12001,양덕중앙시장,상설장,경상남도 창원시 회원구 양덕북10길 23,경상남도 창원시 회원구 양덕동 15-1,35.2326503,128.5842642
12001,합성동상가,상설장,경상남도 창원시 회원구 합성옛길136,경상남도 창원시 회원구 합성동 125-3,35.23772502,128.583461
12005,북신전통시장,상설장,경상남도 통영시 북신시장1길 66,경상남도 통영시 북신동 665-16,34.85415526,128.4275309
12005,서호전통시장,상설장,경상남도 통영시 새터길 58-9,경상남도 통영시 서호동 163-42,34.84146179,128.4201162
12005,통영중앙전통시장,5일장,경상남도 통영시 중앙시장1길14-16,경상남도 통영시 중앙동 38-4,34.84529265,128.4246138
12016,북천공설시장,5일장,경상남도 하동군 경서대로 2427-14,경상남도 하동군 북천면 직전리 597-1,35.11402683,127.8919534
12016,계천공설시장,5일장,경상남도 하동군 금남면 섬진강대로 977-17,경상남도 하동군 금남면 계천리 355-3,34.99598807,127.8094994
12016,옥종공설시장,5일장,경상남도 하동군 옥종면 옥종사장길 5,경상남도 하동군 옥종면 청룡리,35.18209956,127.8802211
12016,진교공설시장,5일장,경상남도 하동군 진교면 선창길 24,경상남도 하동군 진교면 진교리302-4,35.02717371,127.9038157
12016,하동공설시장,5일장,경상남도 하동군 하동읍 시장 1길 12-2,경상남도 하동군 하동읍 읍내리 258-1,35.06980844,127.7483806
12016,화개장터,상설장,경상남도 하동군 화개면 쌍계로 21,경상남도 하동군 화개면 탑리 726-10,35.18862364,127.6242242
12016,횡천공설시장,5일장,경상남도 하동군 횡천면 문화2길 24,경상남도 하동군 횡천면 횡천리 507-2,35.10921229,127.8107002
12012,가야상설시장,5일장,경상남도 함안군 가야읍 가야8길8,경상남도 함안군 가야읍 말산리 470-1,35.27726096,128.4064637
12012,군복 공설시장,5일장,경상남도 함안군 군북면 중암8길 27,경상남도 함안군 군북면 중암리83-16,35.26104842,128.3469461
12012,대산공설시장,상설장+5일장,경상남도 함안군 대산면 대산중앙로 219,경상남도 함안군 대산면 구혜리221-3,35.35283686,128.428129
12012,칠원공설시장,5일장,경상남도 함안군 칠원면 서남3길14,경상남도 함안군 칠원면 구성리 734-7,35.30565226,128.5195185
12018,마천전통시장,5일장,경상남도 함양군 마천면 천왕봉로 1144-2,경상남도 함양군 마천면 가흥리 609-2,35.3956493,127.6626812
12018,안의시장,5일장,경상남도 함양군 안의면 약초시장길 25-10,경상남도 함양군 안의면 석천리 243,35.62629824,127.8140336
12018,함양토종약초시장,상설장,경상남도 함양군 안의면 약초시장길 27,경상남도 함양군 안의면 이전리 15,35.62596602,127.813715
12018,지리산함양시장,5일장,경상남도 함양군 함양읍 용평 중앙길 20,경상남도 함양군 함양읍 용평리 607-104,35.5186005,127.7289877
12020,가야시장,5일장,경상남도 합천군 가야면 가야시장로 63-15,경상남도 합천군 가야면 황산리 17-1,35.76024552,128.1383663
12020,삼가시장,5일장,경상남도 합천군 삼가면 일부5길 1,경상남도 합천군 삼가면 일부리 921-1,35.41281461,128.122283
12020,야로시장,5일장,경상남도 합천군 야로면 야로시장길 7-5,경상남도 합천군 야로면 구정리 273-4,35.70612717,128.1685691
12020,초계시장,5일장,경상남도 합천군 초계중앙로 61,경상남도 합천군 초계리 50-1,35.55931487,128.2668345
12020,합천시장,5일장,경상남도 합첩군 합천읍 옥산로 53,경상남도 합첩군 합천읍 합천리473-1,35.56850747,128.161164
11010,경산공설시장,5일장,경상북도 경산시 경안로31길 19,경상북도 경산시 서상동 10,35.82051858,128.7357579
11010,자인공설시장,5일장,경상북도 경산시 자인면 자인로 206-4,경상북도 경산시 자인면 서부리 254,35.81647867,128.8229713
11010,하양 꿈바우,5일장,경상북도 경산시 하양읍 대학로 1543,경상북도 경산시 하양읍 금락리 35-6,35.9156322,128.8192527
11002,감포시장,5일장,경상북도 경주시 감포로115,경상북도 경주시 감포리 436-1,35.80411024,129.5020144
11002,건천시장,5일장,경상북도 경주시 건천읍 내서로 1131-1,경상북도 경주시 건천읍 건천리 339-4,35.84830099,129.1048106
11002,경주중앙시장,5일장,경상북도 경주시 금성로 295,경상북도 경주시 성건동 339-2,35.84396049,129.2067453
11002,북부상가시장,5일장,경상북도 경주시 금성로 396번길 7,경상북도 경주시 성건동 629-10,35.85349307,129.2075801
11002,북정로 중심상가시장,상설장,경상북도 경주시 북정로 15,경상북도 경주시 황오동 242-4,35.84229221,129.2151793
11002,불국시장,5일장,경상북도 경주시 불국로 장터길 24,경상북도 경주시 구정동 429-7,35.77599964,129.3008003
11002,서면시장,상설장+5일장,경상북도 경주시 서면 내서로 401-5,경상북도 경주시 서면 아화리 240-2,35.89506326,129.0480431
11002,안강공설시장,5일장,경상북도 경주시 안강읍 비화중로 3길 26-3,경상북도 경주시 안강읍 양월리 1350-1,35.9903076,129.2217101
11002,양북시장,5일장,경상북도 경주시 양북면 감은로 53-8,경상북도 경주시 양북면 어일리 1295-556,35.79041058,129.4412152
11002,경주성동공설시장,상설장,경상북도 경주시 원화로 281번길 11-11,경상북도 경주시 성동동 51-1번지 일원,35.84554647,129.2162805
11002,봉황중심상가시장,상설장,경상북도 경주시 원효로 89,경상북도 경주시 노동동 230,35.84221759,129.2106605
11002,불국사상가시장,상설장,경상북도 경주시 진현로1길 59-5,경상북도 경주시 진현동 66-5,35.78599622,129.3278528
11002,경주중심상가시장,상설장,경상북도 경주시 태종로 791번길16,경상북도 경주시 황오동 234-1,35.84225824,129.2146805
11002,황남상가시장,상설장,경상북도 경주시 포석로1058-7,경상북도 경주시 황남동 307-1,35.83566157,129.2103141
11002,양남시장,5일장,경상북도 경주시 하서중앙길 56-28,경상북도 경주시 하서리 1502,35.67537996,129.4636507
11016,주)고령대가야시장,5일장,경상북도 고령군 대가야읍 시장3길29,경상북도 고령군 대가야읍 지산리 222-2,35.72730911,128.2666727
11005,구미제일시장상가,상설장,경상북도 구미시 1공단로 192,경상북도 구미시 공단동 264-18,36.10172214,128.3841075
11005,구미산업유통단지,상설장,경상북도 구미시 3공단1로 302-7,경상북도 구미시 임수동 92-9,36.10987823,128.4026464
11005,현대유통 쇼핑센타,상설장,경상북도 구미시 구미중앙로 61-6,경상북도 구미시 원평동 119-2,36.13002413,128.3300422
11005,새마을 중앙시장,상설장+5일장,경상북도 구미시 구미중앙로9길 11,경상북도 구미시 원평동 117-20 외,36.13084551,128.3297837
11005,구미종합상가,상설장,경상북도 구미시 구미중앙로9길 14-6,경상북도 구미시 원평동 119-15,36.13051139,128.3304388
11005,종합제일시장,상설장,경상북도 구미시 구미중앙로9길 7,경상북도 구미시 원평동 118-31,36.13031606,128.3296485
11005,금오시장 상인회,상설장,경상북도 구미시 금오시장로13,경상북도 구미시 원평동 1028-2,36.12611188,128.3406025
11005,선산봉황시장,5일장,경상북도 구미시 선산읍 단계동길 24,경상북도 구미시 선산읍 완전리 253,36.23951857,128.300921
11005,구미파크시장,상설장,경상북도 구미시 송동로 154,경상북도 구미시 도량동 77,36.14936026,128.3254714
11005,공단종합시장,상설장,경상북도 구미시 수출대로3길107,경상북도 구미시 공단동 107,36.12063634,128.3715356
11005,인동시장,5일장,경상북도 구미시 인동중앙로5길 16-3,경상북도 구미시 황상동 307-7,36.10819769,128.4209296
11005,구미 장천시장,5일장,경상북도 구미시 장천면 상장5길 4,경상북도 구미시 장천면 상장리 918,36.12569981,128.4934095
11005,신평전통시장,상설장,경상북도 구미시 칠성로6길 48,경상북도 구미시 신평동 150-4,36.12315891,128.3611464
11005,해평공설시장,5일장,경상북도 구미시 해평면 해평시장3길,경상북도 구미시 해평면 낙성리 138,36.19585459,128.3919328
11005,형곡중앙시장,상설장,경상북도 구미시 형곡로 186,경상북도 구미시 형곡동 321,36.10631794,128.3365164
11005,형곡시장프라자,상설장,경상북도 구미시 형곡서로 121,경상북도 구미시 형곡동 147-1,36.11288249,128.3343334
11003,평화시장,5일장,경상북도 김천시 김천로100,경상북도 김천시 평화동 259-1,36.12364051,128.1130801
11003,부곡시장,상설장,경상북도 김천시 부곡시장2길 16,경상북도 김천시 부곡동 409-1번지 일원,36.12583274,128.1042234
11003,황금시장,5일장,경상북도 김천시 황금시장4길20,경상북도 김천시 황금동 31-1,36.11665981,128.1252833
11009,가은아자개시장,5일장,경상북도 문경시 가은읍 가은5길 7,경상북도 문경시 가은읍 왕능리 275-26,36.64660927,128.0609889
11009,문경전통시장,5일장,경상북도 문경시 문경읍 문희로 41-15,경상북도 문경시 문경읍 하리 88-2,36.7355833,128.1074789
11009,점촌전통시장,5일장,경상북도 문경시 신흥시장길 19,경상북도 문경시 흥덕동 794-1,36.60138925,128.2041632
11009,유)문경시 중앙시장,상설장,경상북도 문경시 중앙로 87,경상북도 문경시 점촌동 197-14,36.59353645,128.1973425
11009,문경중앙시장,상설장,경상북도 문경시 중앙시장길32-10,경상북도 문경시 흥덕동 794-1,36.60138925,128.2041632
11020,내성시장,5일장,경상북도 봉화군 봉화읍 내성로5길13군민행복센터3층,경상북도 봉화군 봉화읍 내성리 192-1,36.88898151,128.7394689
11020,봉화상설시장,5일장,경상북도 봉화군 봉화읍 신시장1길 4,경상북도 봉화군 봉화읍 내성리 394-1,36.89013645,128.7355094
11020,봉화춘양시장,5일장,경상북도 봉화군 춘양면 의양로 60,경상북도 봉화군 춘양면 의양리 357-29,36.93636899,128.913044
11008,상주시 남성시장,5일장,경상북도 상주시 남성4길 43,경상북도 상주시 남성4길 43 일원,36.41441058,128.1621071
11008,상주중앙시장,5일장,경상북도 상주시 남성로35,경상북도 상주시 남성동 85-10,36.41319406,128.1608304
11008,은척시장,5일장,경상북도 상주시 은척면 봉중1길 16-1,경상북도 상주시 은척면 봉중리383-2,36.53266774,128.0729549
11008,풍물시장,5일장,경상북도 상주시 풍물시장길16,경상북도 상주시 남성동 113-28,36.41284998,128.1606296
11008,함창전통시장,상설장+5일장,경상북도 상주시 함창읍 함창시장길4514,경상북도 상주시 함창읍 구향리 122,36.56755749,128.1795035
11008,화령시장,5일장,경상북도 상주시 화서면 화령남6길 7,경상북도 상주시 화서면 신봉3리 128-7,36.44479088,127.9506951
11017,성주전통시장,5일장,경상북도 성주군 성주읍 시장길43,경상북도 성주군 성주읍 경산리 718-63,35.91446617,128.2851061
11004,용상공설시장,상설장,경상북도 안동시 경동로 862,경상북도 안동시 용상동 1242,36.55947134,128.7501645
11004,안동서부시장,5일장,경상북도 안동시 대안로 22번지,경상북도 안동시 태화동 60-12,36.56527091,128.7149735
11004,중앙시장,5일장,경상북도 안동시 대안로98-15,경상북도 안동시 옥야동 285-1,36.56511672,128.724162
11004,안동구시장,상설장,경상북도 안동시 번영1길 55,경상북도 안동시 서부동 181-1,36.56581163,128.7278744
11004,안동북문시장,5일장,경상북도 안동시 북문옥정길 25,경상북도 안동시 율세동 410-5,36.56852384,128.7326141
11004,풍산공설시장,5일장,경상북도 안동시 풍산읍 하리들길 7-1,경상북도 안동시 풍산읍 하리리 234-6,36.57720866,128.5765748
11004,구담공설시장,5일장,경상북도 안동시 풍천면 섬마길 7-9,경상북도 안동시 풍천면 구담리 494-1,36.54171572,128.4646132
11014,강구시장,5일장,경상북도 영덕군 강구면 강구시장1길,경상북도 영덕군 강구면 오포리 535,36.35802377,129.3805615
11014,남정시장,5일장,경상북도 영덕군 남정면 진불1길 31-3,경상북도 영덕군 남정면 장사리365,36.28554802,129.3728808
11014,영덕시장,5일장,경상북도 영덕군 영덕읍 야성길 15,경상북도 영덕군 영덕읍 남석리 34-80,36.40753265,129.3673996
11014,영해만세시장,5일장,경상북도 영덕군 영해면 예주시장5길 21,경상북도 영덕군 영해면 성내리 468-1,36.54089457,129.407185
11013,영양시장,5일장,경상북도 영양군 영양로 영양읍 시장5길 4,경상북도 영양군 영양로 영양읍 서부리 288-3,36.66434491,129.1159732
11006,영주공설시장,5일장,경상북도 영주시 구성로 330번길 30,경상북도 영주시 하망동 362-4,36.82255573,128.6263204
11006,영주골목시장,상설장,경상북도 영주시 구성로 360번길 15-1,경상북도 영주시 영주동 315-6,36.82466754,128.6228703
11006,신영주번개시장,상설장,경상북도 영주시 선비로79번길,경상북도 영주시 휴천동 330,36.81224687,128.623387
11006,영주종합시장,상설장,경상북도 영주시 선비로79번길 40-12,경상북도 영주시 휴천동 305,36.81360395,128.6221794
11006,영주중앙시장,상설장,경상북도 영주시 영주로 192번길 10-1,경상북도 영주시 영주동 547,36.8257389,128.6209769
11006,영주소백쇼핑몰,상설장,경상북도 영주시 중앙로 80번길 33-12,경상북도 영주시 하망동 364-30,36.82348952,128.62617
11006,영주문화시장,상설장,경상북도 영주시 중앙로 83번길 32,경상북도 영주시 영주동 376-1,36.8239126,128.6235621
11006,선비골 전통시장,상설장,경상북도 영주시 중앙로 83번길40,경상북도 영주시 영주동 373-5,36.82424293,128.6231913
11006,풍기중앙시장,상설장,경상북도 영주시 풍기읍 동성로 73,경상북도 영주시 풍기읍 성내리 1-4,36.8706025,128.528199
11006,풍기선비골인삼시장,상설장,경상북도 영주시 풍기읍 소백로 2156,경상북도 영주시 풍기읍 산법리 446-4 8,36.88850301,128.5406894
11006,풍기토종인삼시장,상설장,경상북도 영주시 풍기읍 인삼로 40,경상북도 영주시 풍기읍 성내리 148,36.87028809,128.5224189
11006,풍기인삼시장,상설장,경상북도 영주시 풍기읍인삼로8,경상북도 영주시 서부리 145-3,36.87302722,128.5236169
11007,영천금호공설시장,5일장,경상북도 영천시 금호읍 금호로 101,경상북도 영천시 금호읍 교대리167-35,35.93166871,128.8733581
11007,영천공설시장,5일장,경상북도 영천시 시장4길 52,경상북도 영천시 완산동 982-3,35.96424852,128.9385815
11007,신녕공설시장,5일장,경상북도 영천시 신녕면 본관시장길3,경상북도 영천시 신녕면 화성리 866-1,36.04209096,128.7874685
11019,예천맛고을시장,상설장,경상북도 예천군 예천읍 맛고을길 57,경상북도 예천군 노하리 74-16,36.65688812,128.454883
11019,예천상설시장,5일장,경상북도 예천군 예천읍 상설시장2길 3-1,경상북도 예천군 예천읍 동본리 553,36.65599016,128.4561493
11019,예천중앙시장,5일장,경상북도 예천군 예천읍 시장로127,경상북도 예천군 예천읍 동본리 497-1,36.65743408,128.4578289
11019,용궁시장,5일장,경상북도 예천군 용궁면 용궁시장길 9,경상북도 예천군 용궁면 읍부리 329-1,36.60701802,128.2753721
11019,풍양시장,5일장,경상북도 예천군 풍양면 낙상2길 37-13,경상북도 예천군 풍양면 낙상리 157-7,36.50927274,128.2998052
11021,흥부시장,상설장+5일장,경상북도 울진군 북면 장터길 104,경상북도 울진군 북면 부구리 135,37.10360525,129.37538
11021,울진바지게시장,5일장,경상북도 울진군 울진읍 읍내2길 13-6,경상북도 울진군 울진읍 읍내리 63,36.99162911,129.4020697
11021,죽변시장,5일장,경상북도 울진군 죽변면 죽변중앙로 168-14,경상북도 울진군 죽변면 죽변리 36-8,37.05896818,129.4222539
11021,평해시장,5일장,경상북도 울진군 평해읍 평해6길12,경상북도 울진군 평해읍 평해리 879-3,36.72694528,129.4424364
11021,후포시장,5일장,경상북도 울진군 후포면 울진대게로21,경상북도 울진군 후포면 삼율리 126,36.67787585,129.4442274
11011,금성시장,상설장+5일장,경상북도 의성군 금성면 탑리길56-1,경상북도 의성군 금성면 대리리 66-7,36.25617742,128.6814155
11011,봉양시장,5일장,경상북도 의성군 봉양면 도리원6길 9-1,경상북도 의성군 봉양면 화전리 94-5,36.2992611,128.5815925
11011,안계공설시장,상설장+5일장,경상북도 의성군 안계면 안계시장길 14-11,경상북도 의성군 안계면 용기리 467-1,36.38442423,128.4383448
11011,의성영매시장,상설장,경상북도 의성군 의성읍 염매시장길 5,경상북도 의성군 의성읍 후죽리 688,36.35023478,128.6956093
11011,의성공설재래시장,5일장,경상북도 의성군 의성읍 전통시장 1길 12-8,경상북도 의성군 의성읍 도동리 758-4,36.34511297,128.6998499
11015,동곡공설시장,상설장+5일장,경상북도 청도군 금천면 금천로 41-2,경상북도 청도군 금천면 동곡리 776,35.69206183,128.8910766
11015,이서공설시장,5일장,경상북도 청도군 이서면 학산1길51,경상북도 청도군 이서면 학산리 579-2,35.66270714,128.666433
11015,풍각공설시장,상설장+5일장,경상북도 청도군 청도군 풍각면 송서7길 5,경상북도 청도군 청도군 풍각면 송서리 572-2,35.6409322,128.6186232
11015,청도공설시장,5일장,경상북도 청도군 청도읍 청도시장1길 21,경상북도 청도군 청도읍 고수리 778 외,35.64394305,128.746038
11012,부남시장,5일장,경상북도 청송군 부남면 대전로142,경상북도 청송군 부남면 대전리 64-16,36.34650613,129.0644424
11012,안덕시장,5일장,경상북도 청송군 안덕면 명당2길,경상북도 청송군 안덕면 명당1리 안덕로57,36.28812837,128.9574965
11012,진보시장,5일장,경상북도 청송군 진보면 진안남2길 9-1,경상북도 청송군 진보면 진안리 121-3,36.52833684,129.0464058
11012,청송시장,5일장,경상북도 청송군 청송읍 현충로 106,경상북도 청송군 청송읍 월막리 423-1,36.43514723,129.0521199
11012,도평시장,5일장,경상북도 청송군 현동면 도평2길 21,경상북도 청송군 현동면 도평리 839-103,36.2901095,129.0170801
11012,화목시장,상설장+5일장,경상북도 청송군 현서면 구산북로57-1,경상북도 청송군 현서면 구산리 100-14,36.27540013,128.8973097
11018,왜관시장,상설장+5일장,경상북도 칠곡군 왜관읍 시장2길 9,경상북도 칠곡군 왜관읍 왜관리 211-187,35.99515075,128.3982558
11001,구룡포시장,5일장,경상북도 포항시 남구 구룡포읍 구룡포길 72-1,경상북도 포항시 남구 구룡포읍 구룡포리 963-2,35.99031517,129.5540012
11001,영남시장,상설장,경상북도 포항시 남구 동해면 일월로152,경상북도 포항시 남구 동해면 약전리 436-3,35.98794164,129.4496146
11001,형산시장,상설장,경상북도 포항시 남구 문예로 70번길23,경상북도 포항시 남구 대도동 143-1,36.01270248,129.3664934
11001,남부시장,상설장,경상북도 포항시 남구 상공로43,경상북도 포항시 남구 상도동 629,36.01262688,129.3561426
11001,상대종합시장,상설장,경상북도 포항시 남구 양학천로 76번길13,경상북도 포항시 남구 상도동 1-12,36.01993076,129.3611077
11001,연일전통시장,5일장,경상북도 포항시 남구 연일읍 연일로 159번길 46,경상북도 포항시 남구 연일읍 생지리 194-1,35.99635584,129.3486828
11001,오천삼광시장,상설장,경상북도 포항시 남구 오천읍 정몽주로679번길 3,경상북도 포항시 남구 오천읍 구정리 34-5,35.97830389,129.4123384
11001,오천시장,5일장,경상북도 포항시 남구 오천읍 해병로 307번길 26-3,경상북도 포항시 남구 오천읍 세계리 823-1,35.96647172,129.4142295
11001,포항운하송림시장,상설장,경상북도 포항시 남구 운하로36번길 7,경상북도 포항시 남구 송도동 493-11,36.02820448,129.3763118
11001,포항 큰 동해시장,상설장,경상북도 포항시 남구 중앙로146번길 30,경상북도 포항시 남구 해도동 435-31,36.02655267,129.3709812
11001,대해불빛시장,상설장,경상북도 포항시 남구 중앙로67번길 7,경상북도 포항시 남구 해도동 79-1,36.01879903,129.3685606
11001,청림시장,상설장,경상북도 포항시 남구 청림서길 29,경상북도 포항시 남구 청림동 588-2,35.99657739,129.4103555
11001,효자시장,상설장,경상북도 포항시 남구 효자동길10번길 13,경상북도 포항시 남구 효자동 301-1,36.00799585,129.3315924
11001,기계시장,5일장,경상북도 포항시 북구 기계면 새마을발상지길 7,경상북도 포항시 북구 기계면 현내리 403,36.06996099,129.2045022
11001,영일대북부시장,상설장,경상북도 포항시 북구 대신로26번길 10-1,경상북도 포항시 북구 대신동 63-16,36.04629984,129.3691035
11001,용흥시장,상설장,경상북도 포항시 북구 대안길 56,경상북도 포항시 북구 용흥동366,36.04163448,129.3513838
11001,한라종합시장,상설장,경상북도 포항시 북구 대안길 57,경상북도 포항시 북구 용흥동 357-1,36.04122646,129.3512715
11001,그린종합시장,상설장,경상북도 포항시 북구 용두산길 39,경상북도 포항시 북구 장성동 1352-1,36.06729427,129.3809605
11001,장량성도시장,상설장,경상북도 포항시 북구 용두산길 54,경상북도 포항시 북구 두호동 1079,36.06828032,129.3813722
11001,죽도시장,상설장,경상북도 포항시 북구 죽도시장13길 13,경상북도 포항시 북구 죽도동 2번지일대,36.03641906,129.3681415
11001,포항죽도어시장,상설장,경상북도 포항시 북구 죽도시장길32,경상북도 포항시 북구 죽도동 574-4,36.03513373,129.3690792
11001,포항중앙상가,상설장,경상북도 포항시 북구 중앙상가길64,경상북도 포항시 북구 상원동 468-23,36.04015775,129.3661508
11001,두회시장,상설장,경상북도 포항시 북구 창흥로 11,경상북도 포항시 북구 창포동630,36.06174372,129.36936
11001,청하시장,상설장+5일장,경상북도 포항시 북구 청하면 청하로 200번길 4,경상북도 포항시 북구 청하면 미남리 382-3,36.19707466,129.3396614
11001,환호그린빌,상설장,경상북도 포항시 북구 환호공원길 15,경상북도 포항시 북구 환호동 377-5,36.06812939,129.3911479
11001,흥해시장,5일장,경상북도 포항시 북구 흥해읍 한동로 61-13,경상북도 포항시 북구 흥해읍 성내리 61-2,36.110619,129.3482876
11001,포항 죽도 농산물시장,상설장,경상북도 포항시 죽도시장2길 18,경상북도 포항시 죽도동 5-22,36.03457772,129.3679676
11001,양학시장,상설장,경상북도 포항시북구 양학로 40,경상북도 포항시 북구 학잠동 83,36.02726703,129.3497408
13005,송정5일시장,5일장,광주광역시 광산구 광산로30번길 65,광주광역시 광산구 송정동 884-1,35.13707956,126.7969059
13005,송정매일시장,상설장,광주광역시 광산구 송정로 29번길 64,광주광역시 광산구 송정동 813-1,35.13744947,126.7968447
13005,1913송정역 시장,상설장,광주광역시 광산구 송정로 8번길 33,광주광역시 광산구 송정동 971-1,35.13556354,126.7915343
13005,우산매일시장,상설장,광주광역시 광산구 우산로,광주광역시 광산구 우산동 1612- 1,35.16218295,126.8035258
13005,월곡시장,상설장,광주광역시 광산구 월곡 사암로 300,광주광역시 광산구 월곡동 687-3,35.17129717,126.8096478
13005,비아5일시장,상설장+5일장,광주광역시 광산구 중앙로 26-1,광주광역시 광산구 비아동 83-5,35.22135768,126.8252661
13003,무능시장,상설장,광주광역시 남구 군분로27,광주광역시 남구 주월동 974-107,35.13592608,126.8945422
13003,봉선시장,상설장,광주광역시 남구 봉선중앙로91번길 7 봉선동,광주광역시 남구 봉선동 997-1,35.12905105,126.9100024
13001,남광주 해뜨는시장,상설장,광주광역시 동구 제봉로17번길 13-6,광주광역시 동구 학동 55-57,35.13896306,126.9212522
13001,남광주시장,상설장,광주광역시 동구 제봉로17번길 18-6,광주광역시 동구 학동 84-23,35.13929961,126.9208104
13001,대인시장,상설장,광주광역시 동구 제봉로194번길 10,광주광역시 동구 대인동 309-3,35.15407802,126.917243
13001,산수시장,상설장,광주광역시 동구 필문대로192번길 17-1,광주광역시 동구 산수동 558-58,35.15348678,126.9297328
13004,두암시장,상설장,광주광역시 북구 금녕길 23,광주광역시 북구 두암동 856-5,35.1715782,126.9293897
13004,운암시장,상설장,광주광역시 북구 대자로 87,광주광역시 북구 운암동 94-7,35.17337341,126.8820036
13004,말바우시장,상설장+5일장,광주광역시 북구 동문대로97번길 55,광주광역시 북구 우산동 190-1,35.17297793,126.9213607
13004,동부시장,상설장,광주광역시 북구 중문로9번길 39,광주광역시 북구 중흥동 272-6,35.17388593,126.916337
13002,양동경열로시장,상설장,광주광역시 서구 경열로 140-1,광주광역시 서구 양동 307-28,35.1536684,126.9008475
13002,양동산업용품시장,상설장,광주광역시 서구 독립로 205,광주광역시 서구 양동 62의 1,35.15117135,126.906622
13002,양동시장,상설장,광주광역시 서구 천변좌로 238,광주광역시 서구 양동 5-101,35.15390747,126.9025577
13002,양동복개상가,상설장,광주광역시 서구 천변좌로 243,광주광역시 서구 양동 441,35.15359895,126.9039282
13002,양동수산시장,상설장,광주광역시 서구 천변좌로 246번길 16,광주광역시 서구 양동 5-254,35.15323541,126.90166
13002,양동건어물시장,상설장,광주광역시 서구 천변좌로 254번길 6,광주광역시 서구 양동 5-160,35.15316825,126.9033302
13002,양동닭전길시장,상설장,광주광역시 서구 천변좌로 262번길 4,광주광역시 서구 양동 5-56,35.15281861,126.9039961
13002,화정서부시장,상설장,광주광역시 서구 화운로156번길 24-1,광주광역시 서구 화정동783의5,35.15304086,126.8792821
10009,군위전통시장,5일장,대구광역시 군위군 군위읍 중앙6길 4-1,대구광역시 군위군 군위읍 서부리 18-1,36.23975176,128.5679294
10009,의흥시장,5일장,대구광역시 군위군 의흥면 읍내5길 7,대구광역시 군위군 의흥면 읍내리 594-1,36.17425304,128.716305
10004,관문시장,상설장,대구광역시 남구 관문시장2길 43,대구광역시 남구 대명동 1160,35.83553597,128.5590637
10004,명덕시장,상설장,대구광역시 남구 대명로 57길 10-46,대구광역시 남구 대명동 141-1,35.84479575,128.5882688
10004,대명중앙시장,상설장,대구광역시 남구 대명로20길 56,대구광역시 남구 대명6동 1040-4,35.83680695,128.5677075
10004,봉덕시장,상설장,대구광역시 남구 대봉로 17길5-3,대구광역시 남구 봉덕동 961-39,35.84571081,128.6036912
10004,대명시장,상설장,대구광역시 남구 명덕로 60,대구광역시 남구 대명동 1395-56,35.85840896,128.5771651
10004,봉덕신시장,상설장,대구광역시 남구 봉덕로 115,대구광역시 남구 대구 남구 봉덕동 955-8,35.84513894,128.6033943
10004,성당시장,상설장,대구광역시 남구 성당로 196,대구광역시 남구 대명동 3023-23,35.85016855,128.5729695
10004,안지랑시장,상설장,대구광역시 남구 안지랑로16길 67,대구광역시 남구 대명동 829-2,35.83685644,128.5751543
10004,관문상가시장,상설장,대구광역시 남구 월배로 494,대구광역시 남구 대명동 1135-4,35.83654368,128.5572814
10004,광덕시장,상설장,대구광역시 남구 자유6길50,대구광역시 남구 대명동 460-1,35.8371932,128.5824169
10004,영선신시장,상설장,대구광역시 남구 중앙대로48길 36,대구광역시 남구 대명동 2014-204,35.85230523,128.5929207
10004,남부시장,상설장,대구광역시 남구 현충로 19길43,대구광역시 남구 대명동 797-1,35.84140252,128.5769294
10007,달서송림시장,상설장,대구광역시 달서구 구마로 176,대구광역시 달서구 본동 225-1,35.83686121,128.5470721
10007,용산종합큰시장,상설장,대구광역시 달서구 달구벌대로 301길 187-11,대구광역시 달서구 용산동 933,35.8580507,128.5311724
10007,서남시장,상설장,대구광역시 달서구 달구벌대로 329길 17,대구광역시 달서구 감삼동 55-5,35.85436693,128.5451734
10007,서남신시장,상설장,대구광역시 달서구 달구벌대로329길 10,대구광역시 달서구 감삼동 62-4,35.85401333,128.5459007
10007,두류 신시장,상설장,대구광역시 달서구 당산동길 27,대구광역시 달서구 성당동 706-21,35.84527483,128.5462249
10007,두류종합시장,상설장,대구광역시 달서구 당산동길 9,대구광역시 달서구 성당동 704-5,35.84549251,128.5451423
10007,달서시장 상인회,상설장,대구광역시 달서구 당산로 27 35,대구광역시 달서구 본리동 145-2 -5번지,35.83984838,128.5442676
10007,도원시장,상설장,대구광역시 달서구 도원동길 8,대구광역시 달서구 도원동 1437-1,35.8075801,128.5367189
10007,대곡시장,상설장,대구광역시 달서구 도원로24,대구광역시 달서구 도원동 1432,35.80758305,128.5354588
10007,서대구시장,상설장,대구광역시 달서구 명덕로2길 30,대구광역시 달서구 두류1동 1216-1,35.86059821,128.5706868
10007,대동시장,상설장,대구광역시 달서구 상원로 22-24,대구광역시 달서구 상인2동 1472-1,35.81167078,128.5377864
10007,대구 상원시장,상설장,대구광역시 달서구 상인로9,대구광역시 달서구 상인동 1582-4,35.80902715,128.5512851
10007,상인영남상가 영남화성상가시장,상설장,대구광역시 달서구 상인서로 76,대구광역시 달서구 상인1동1517,35.8165179,128.5425774
10007,와룡시장,상설장,대구광역시 달서구 성서대로 69길 7,대구광역시 달서구 신당동 1788-3,35.85581625,128.4993262
10007,성서용산시장,상설장,대구광역시 달서구 성지로 66-1,대구광역시 달서구 용산동 421-1,35.85513785,128.5213741
10007,송현주공시장(월촌역시장),상설장,대구광역시 달서구 송현로12안길 38,대구광역시 달서구 송현동 1948-3,35.82274056,128.5481771
10007,송경시장,상설장,대구광역시 달서구 앞산순환로49길 73,대구광역시 달서구 송현1동 1941-3,35.82709695,128.5516336
10007,신내당시장,상설장,대구광역시 달서구 야외음악당로39길 62,대구광역시 달서구 두류3동 486-1,35.854621,128.5538543
10007,대구예전우시장,상설장,대구광역시 달서구 야외음악당로47길 111,대구광역시 달서구 두류동 136-6,35.85853624,128.5620318
10007,보성은하상가,상설장,대구광역시 달서구 월곡로 320,대구광역시 달서구 상인1동42,35.82358281,128.5342978
10007,월배시장,상설장,대구광역시 달서구 월배로24길 13,대구광역시 달서구 진천동 241-3,35.81407427,128.5273978
10007,보성화성상가,상설장,대구광역시 달서구 이곡동 계대동문로 99,대구광역시 달서구 이곡동 1191번지 보성화성상가,35.85566367,128.5041213
10007,월성청구시장,상설장,대구광역시 달서구 학산로 17,,35.82753061,128.5311036
10008,농공중앙시장,상설장,대구광역시 달성군 논공읍 용호로2길 12,대구광역시 달성군 논공읍 북리 824-26,35.72838683,128.4465912
10008,현풍백년도깨비시장,5일장,대구광역시 달성군 현풍읍 현풍로 6길 5,대구광역시 달성군 현풍읍 원교리 12-5,35.69476056,128.4422285
10008,화원시장,상설장+5일장,대구광역시 달성군 화원읍 화원읍 비슬로512길 66,대구광역시 달성군 화원읍 천내리 892-1,35.8012922,128.4990942
10002,동대구역전시장,상설장,대구광역시 동구 동부로 16길 18,대구광역시 동구 신천동 278,35.87430058,128.6205677
10002,송라시장,상설장,대구광역시 동구 동부로5길 10,대구광역시 동구 신천동 537-13,35.87448539,128.6153112
10002,방촌시장,상설장,대구광역시 동구 동촌로46길 2,대구광역시 동구 방촌동 1067-2,35.88130152,128.6644272
10002,불로전통시장,5일장,대구광역시 동구 반야월로1길 7,대구광역시 동구 불로동 449-1,35.87461007,128.6889732
10002,반야월목련시장,상설장,대구광역시 동구 반야월로30길 61-1,대구광역시 동구 신기동 271-2,35.86998236,128.7046611
10002,동서시장,상설장,대구광역시 동구 아양로 37길51-1,대구광역시 동구 신암동 94-14,35.88820415,128.6333701
10002,평화시장,상설장,대구광역시 동구 아양로 9길 6-6,대구광역시 동구 신암동 597-14,35.88259978,128.6193995
10002,반야월종합시장,상설장+5일장,대구광역시 동구 율하동로 143,대구광역시 동구 신기동 174-1,35.87240606,128.7024484
10002,공항시장,상설장,대구광역시 동구 해동로3길 6,대구광역시 동구 지저동 694-41,35.89639261,128.6382422
10002,동구시장,상설장,대구광역시 동구 효목로 8동 구시장 A동,대구광역시 동구 효목동 533,35.87405461,128.6395728
10005,산격종합시장,상설장,대구광역시 북구 대동로1길 34,대구광역시 북구 산격동 1258,35.89863699,128.6103517
10005,동대구 신시장,상설장,대구광역시 북구 대현로 100,대구광역시 북구 대현동 270-8,35.88219144,128.6097908
10005,동대구시장,상설장,대구광역시 북구 대현로20길 30,대구광역시 북구 대현동 390,35.88107854,128.6090909
10005,산업용재관(대구기계공구상협동조합),상설장,대구광역시 북구 유통단지로 16,대구광역시 북구 산격동 1629,35.90496577,128.6063956
10005,대구 전자관,상설장,대구광역시 북구 유통단지로 45 전자관,대구광역시 북구 산격동 1621,35.90720316,128.6070187
10005,대구종합유통단지섬유제품관,상설장,대구광역시 북구 유통단지로 60,대구광역시 북구 산격동 1667,35.90627923,128.6096611
10005,전자상가,상설장,대구광역시 북구 유통단지로25,대구광역시 북구 산격동 1626,35.90545705,128.604982
10005,전기조명관,상설장,대구광역시 북구 유통단지로50,대구광역시 북구 산격2동 1666,35.90569603,128.6082752
10005,전기재료관,상설장,대구광역시 북구 유흥단지로 38 산격동,대구광역시 북구 산격동 1665,35.9050606,128.6077132
10005,칠곡시장,상설장+5일장,대구광역시 북구 칠곡중앙대로526,대구광역시 북구 읍내동 1201-1,35.94252496,128.551221
10005,대구능금시장,상설장,대구광역시 북구 칠성남로 197-15,대구광역시 북구 칠성동1가 234-9,35.87714991,128.6019681
10005,칠성시장,상설장,대구광역시 북구 칠성남로 229,대구광역시 북구 칠성동1가 276-163,35.87631033,128.605429
10005,칠성상가시장,상설장,대구광역시 북구 칠성남로 230,대구광역시 북구 칠성동1가 150-1,35.87561087,128.6053141
10005,칠성본시장,상설장,대구광역시 북구 칠성시장로 15-1,대구광역시 북구 칠성동1가 97-1,35.87551494,128.60438
10005,칠성진 경명시장,상설장,대구광역시 북구 칠성시장로 19,대구광역시 북구 칠성동1가 89,35.87571938,128.6040649
10005,대구청과시장,상설장,대구광역시 북구 칠성시장로 34,대구광역시 북구 칠성동1가 276-102,35.87702959,128.6039134
10005,삼성시장,상설장,대구광역시 북구 칠성시장로 42,대구광역시 북구 칠성동1가 276-108,35.8778191,128.6034802
10005,칠성전자주방시장,상설장,대구광역시 북구 칠성시장로 73-1,대구광역시 북구 칠성동2가 409-71,35.88023367,128.6015513
10005,태전중앙시장,상설장,대구광역시 북구 태전로 15,대구광역시 북구 태전동 156-1,35.92166388,128.5449078
10005,팔달신시장,상설장,대구광역시 북구 팔달로33길5-9,대구광역시 북구 노원동3가,35.8892023,128.5679272
10005,서면중앙시장,5일장,대구광역시 북구 호국로43길27,대구광역시 북구 서변동 1751,35.92100345,128.596176
10003,신평리시장,상설장,대구광역시 서구 국채보상로 52길 33,대구광역시 서구 평리동 1205,35.86809861,128.5606859
10003,서구시장,상설장,대구광역시 서구 국채보상로45길 33,대구광역시 서구 평리3동 1085-1,35.87393762,128.5556896
10003,새일시장,상설장,대구광역시 서구 달서로 17-7,대구광역시 서구 내당2 3동 968-7,35.86372514,128.5713791
10003,서부시장,상설장,대구광역시 서구 달서로 26길 7-2,대구광역시 서구 비산동 434-13,35.87330956,128.5720469
10003,원대 신시장,상설장,대구광역시 서구 달서로 54길 6,대구광역시 서구 원대동3가 1434-4,35.88553463,128.5748006
10003,이현시장,상설장,대구광역시 서구 문화로 33길24,대구광역시 서구 평리동 606-8,35.87695054,128.5506362
10003,대평리시장,상설장,대구광역시 서구 문화로49길 25,대구광역시 서구 평리동676-7,35.87801117,128.5589346
10003,중평시장,상설장,대구광역시 서구 서대구로 17길16,대구광역시 서구 평리동 1437-5,35.86537086,128.5539071
10003,원고개시장,상설장,대구광역시 서구 통학로46길 48,대구광역시 서구 비산동 566-2,35.88028036,128.5682981
10006,수산시장,상설장,대구광역시 수성구 들안로 285-56 수성동2가,대구광역시 수성구 수성2가 39-3,35.85565487,128.6170064
10006,청구시장,상설장,대구광역시 수성구 만촌로 66 만촌동,대구광역시 수성구 만촌동 984-1,35.86485353,128.6440771
10006,대구 신매시장,상설장,대구광역시 수성구 신매로16길 24-4 신매동,대구광역시 수성구 신매동576-2,35.83727992,128.7097215
10006,지산목련시장,상설장,대구광역시 수성구 용학로42길 9 지산동,대구광역시 수성구 지산동 1199-10,35.82079684,128.631863
10006,황금시장,상설장,대구광역시 수성구 청솔로 19 황금동,대구광역시 수성구 황금동 746,35.84839977,128.6199562
10001,교동시장,상설장,대구광역시 중구 교동2길11,대구광역시 중구 교동 51-1,35.87370057,128.598366
10001,대구약령시장,상설장,대구광역시 중구 남성로 52-2,,35.8671439,128.5923518
10001,방천시장,상설장,대구광역시 중구 달구벌대로450길16-3,대구광역시 중구 대봉동 4-9,35.861143,128.6072105
10001,서문시장4지구,상설장,대구광역시 중구 달성로 18,대구광역시 중구 동산동 562,35.86673048,128.5827232
10001,염매시장,상설장,대구광역시 중구 종로 11-9,대구광역시 중구 계산동2가 252,35.86686804,128.5916802
10001,서문시장건해산물상가,상설장,대구광역시 중구 큰장로 26안길5,대구광역시 중구 대신동 265-5,35.8681429,128.5794878
10001,서문시장 명품프라자,상설장,대구광역시 중구 큰장로 28길 27,대구광역시 중구 대신동 115-112,35.86990817,128.5809042
10001,서문시장아진상가,상설장,대구광역시 중구 큰장로 28길39,대구광역시 중구 큰장로 대신동 115-381,35.86994908,128.5815824
10001,서문시장5지구,상설장,대구광역시 중구 큰장로26길 6,대구광역시 중구 대신동115-400,35.868085,128.5784635
10001,동산상가,상설장,대구광역시 중구 큰장로26길 65,대구광역시 중구 대신동 115-30,35.86895466,128.5817199
10001,서문시장2지구종합상가,상설장,대구광역시 중구 큰장로26길25,대구광역시 중구 대신동 2105,35.86881467,128.5795313
10001,서문시장1지구상인회,상설장,대구광역시 중구 큰장로28길10 1층,대구광역시 중구 대신동 115-379 1층,35.86939386,128.5798314
10001,서문시장1지구포목시장(2층),상설장,대구광역시 중구 큰장로28길10 2층,대구광역시 중구 대신동 115-379 2층,35.86939386,128.5798314
10001,번개시장,상설장,대구광역시 중구 태평로 177-3,대구광역시 중구 태평로1가 1-152,35.87508929,128.5981311
05002,법동시장,상설장,대전광역시 대덕구 계족로 608번길 23 법동,대전광역시 대덕구 법동 200-7,36.36622464,127.4315733
05002,송촌시장,상설장,대전광역시 대덕구 동춘당로 83,대전광역시 대덕구 송촌동 476-1,36.36463844,127.439864
05002,신탄진시장,5일장,대전광역시 대덕구 석봉로43번길 37,대전광역시 대덕구 석봉동 417-43,36.44915342,127.4265065
05002,대전중리전통시장,상설장,대전광역시 대덕구 중리북로31번길 26,대전광역시 대덕구 중리동 372-6,36.36558954,127.4263885
05005,중앙도매시장(대전),상설장,대전광역시 동구 대전로 783,대전광역시 동구 원동 51-1,36.32956033,127.4331847
05005,전통중앙도매상가,상설장,대전광역시 동구 대전로 785,대전광역시 동구 원동 20-49,36.32982636,127.4337041
05005,(주)대전도매시장,상설장,대전광역시 동구 대전로 785번길,대전광역시 동구 중동 76-1,36.3302023,127.4329191
05005,중앙상가시장,상설장,대전광역시 동구 대전로791번길 38,대전광역시 동구 중동 28-45,36.32961517,127.4311264
05005,인동시장,상설장,대전광역시 동구 대전천동로 452,대전광역시 동구 인동 30-2,36.32253186,127.4359134
05005,가양시장(주),상설장,대전광역시 동구 매봉로 18,대전광역시 동구 가양동 434,36.34626329,127.4431993
05005,용운시장,상설장,대전광역시 동구 용운로 164번길 일원,대전광역시 동구 용운동 305-14,36.32781621,127.4605847
05005,중앙종합시장,상설장,대전광역시 동구 중교로 119 원동,대전광역시 동구 원동 65-7,36.32859197,127.4322021
05005,정원시장,상설장,대전광역시 동구 중앙로 194번길 33,대전광역시 동구 원동 64-1,36.32910635,127.4316555
05005,자유도매시장,상설장,대전광역시 동구 중앙로 200번길 40,대전광역시 동구 원동 64-1,36.32923674,127.4320061
05005,중앙메가프라자,상설장,대전광역시 동구 중앙로 200번길 99,대전광역시 동구 원동 42-1,36.3267299,127.4339584
05005,신중앙시장,상설장,대전광역시 동구 중앙로200번길 85,대전광역시 동구 원동 40- 1,36.3272971,127.4336349
05005,대전상가시장,상설장,대전광역시 동구 충무로 185,대전광역시 동구 인동 52-1,36.32178813,127.4366521
05005,신도꼼지락 시장,상설장,대전광역시 동구 흥룡로37번길 12,대전광역시 동구 가양동 38-5,36.3495206,127.447114
05003,도마큰시장,상설장,대전광역시 서구 도마4길 71,대전광역시 서구 도마동 132-13,36.31580602,127.3813666
05003,한민시장,상설장,대전광역시 서구 도솔로 308번길 27,대전광역시 서구 괴정동 88-34,36.33462149,127.3840015
05001,송강전통시장,상설장,대전광역시 유성구 구즉로 74-7,대전광역시 유성구 송강동 49-10,36.43519975,127.3866081
05004,용두전통시장,상설장,대전광역시 중구 계룡로 881번길 53,대전광역시 중구 용두동 12-2,36.32340688,127.4145668
05004,오류전통시장,상설장,대전광역시 중구 계룡로882번길 72,대전광역시 중구 오류동 162-16,36.32195883,127.4079507
05004,산성전통시장(산성뿌리전통시장),상설장,대전광역시 중구 대둔산로 420,대전광역시 중구 산성동 285-1,36.30655779,127.3871263
05004,부사전통시장,상설장,대전광역시 중구 대종로316번길 16,대전광역시 중구 부사동 148-6,36.31414143,127.4353735
05004,유천전통시장,상설장,대전광역시 중구 문화로 105번길 113,대전광역시 중구 유천동 303-10,36.31721058,127.3954896
05004,대전문창전통시장,상설장,대전광역시 중구 보문로 20번길 22,대전광역시 중구 문창동 116-8,36.31551061,127.4381799
05004,태평전통시장,상설장,대전광역시 중구 수침로 55번길 56,대전광역시 중구 태평동 333-8,36.32594524,127.397694
08012,명지시장,상설장,부산광역시 강서구 신포길 17번길 27,부산광역시 강서구 명지동 1-377,35.11254126,128.931598
08011,금사제일상가시장,상설장,부산광역시 금정구 개좌로81,부산광역시 금정구 금사동 68-14,35.22045124,129.1125715
08011,구서오시게시장,상설장,부산광역시 금정구 구서로12,부산광역시 금정구 구서동 87-9,35.24735756,129.0897741
08011,부곡상가시장,상설장,부산광역시 금정구 부곡로107,부산광역시 금정구 부곡동 304-1,35.22548538,129.0915165
08011,장전상가시장,상설장,부산광역시 금정구 부산대학로49번길 13,부산광역시 금정구 장전동421-7,35.23084994,129.086107
08011,서동전통골목시장,상설장,부산광역시 금정구 서동로 143,부산광역시 금정구 서3동 338-7,35.21528357,129.1022459
08011,서동시장,상설장,부산광역시 금정구 서동로141번길 21,부산광역시 금정구서3동 302,35.21641237,129.1023592
08011,서동 향토시장,상설장,부산광역시 금정구 서부로 21-1,부산광역시 금정구 서동 194-1,35.21593693,129.1033546
08011,장성시장,상설장,부산광역시 금정구 수림로61번길 53,부산광역시 금정구 장전동155-17,35.23744168,129.0855567
08016,기장시장,상설장,부산광역시 기장군 기장읍 원내로 104번길 16,부산광역시 기장군 기장읍 대라리 68-5,35.24406017,129.215363
08007,용호시장,상설장,부산광역시 남구 동명로 152번길 93,부산광역시 남구 용호동 516-10,35.114912,129.1127729
08007,대연시장,상설장,부산광역시 남구 못골로 56,부산광역시 남구 대연5동 1760-1,35.13567985,129.0884212
08007,못골골목시장,상설장,부산광역시 남구 못골로 66-1,부산광역시 남구 대연5동 1416-23,35.13586148,129.0896366
08007,용호삼성시장,상설장,부산광역시 남구 용호로 106번길 40,부산광역시 남구 용호동 128-1,35.12389935,129.1105376
08007,용호골목시장,상설장,부산광역시 남구 용호로 177번길5,부산광역시 남구 용호동 494-19,35.11640737,129.1114604
08007,용호1동골목시장,상설장,부산광역시 남구 용호로106번길 56,부산광역시 남구 용회동 215-14번지,35.12436007,129.1102038
08007,우암골목시장,상설장,부산광역시 남구 장고개로 9-1,부산광역시 남구 우암동 226-17,35.12616578,129.0709232
08007,동성하이타운시장,상설장,부산광역시 남구 천제등로11,부산광역시 남구 대연1동 1756-9,35.13357079,129.087532
08007,감안시장,상설장,부산광역시 남구 홍곡로 17,부산광역시 남구 감만1동 171-9,35.11634433,129.0821611
08007,새감만종합시장,상설장,부산광역시 남구 홍곡로 3,부산광역시 남구 감만1동 163-2,35.1163335,129.0817109
08007,남광시장,상설장,부산광역시 남구 홍곡로 359,부산광역시 남구 대연4동1170-7,35.12392263,129.0887175
08003,수정시장,상설장,부산광역시 동구 고관로 106,부산광역시 동구 수정2동 170- 1,35.12825843,129.0463919
08003,범일골목시장,상설장,부산광역시 동구 범곡북로28,부산광역시 동구 범일동 1486,35.14182512,129.0530191
08003,부산 남문시장,상설장,부산광역시 동구 범일로65번길 8,부산광역시 동구 범일동 290-3,35.13592461,129.058687
08003,성북시장,상설장,부산광역시 동구 성북로 56,부산광역시 동구 범일4동 1430-53,35.13873344,129.0487528
08003,부산자유시장,상설장,부산광역시 동구 조방로 48,부산광역시 동구 범일동 830-24,35.14097365,129.0610402
08003,수정전통시장,상설장,부산광역시 동구 중앙대로371번길 50,부산광역시 동구 수정동 248-3,35.13011972,129.0463697
08003,부산진시장,상설장,부산광역시 동구 진시장로 24,부산광역시 동구 범일동 290- 1,35.13642339,129.0588362
08003,초량상가 시장,상설장,부산광역시 동구 초량로 15,부산광역시 동구 초량동 200,35.11890679,129.0399808
08003,초량전통시장,상설장,부산광역시 동구 초량로13번길 24,부산광역시 동구 초량동 308- 1,35.11803874,129.0396675
08006,동래시장,상설장,부산광역시 동래구 동래시장길14,부산광역시 동래구 복천동 229-42,35.20380872,129.0859386
08006,명장시장,상설장,부산광역시 동래구 명장로64번길 12,부산광역시 동래구 명장1동145-9,35.20401286,129.1074835
08006,국민시장,상설장,부산광역시 동래구 사직북로 33번길31,부산광역시 동래구 사직동 44-1,35.19840108,129.0582333
08006,사직시장,상설장,부산광역시 동래구 사직북로34번길 48,부산광역시 동래구 사직동49-1,35.20005591,129.0623187
08006,온천인정시장,상설장,부산광역시 동래구 온천장로125번길 41-2,부산광역시 동래구 온천동 146-29,35.22311398,129.0831495
08006,금성상가시장,상설장,부산광역시 동래구 우장춘로4번길 23-8,부산광역시 동래구 온천동1407-2,35.20817586,129.0719427
08006,수안인정시장,상설장,부산광역시 동래구 충렬대로245번길 8,부산광역시 동래구 수안동275-2,35.20149621,129.0865801
08006,서원시장,상설장,부산광역시 동래구 충렬대로359번길 55,부산광역시 동래구 안락1동425-51,35.20038828,129.0990191
08006,안락상가시장,상설장,부산광역시 동래구 충렬대로410번길 21,부산광역시 동래구 안락2동603-1,35.1954983,129.1033164
08006,충렬상가시장,상설장,부산광역시 동래구 충렬대로459번길 73-10,부산광역시 동래구 안락동464-21,35.19809586,129.1099543
08005,개금골목시장,상설장,부산광역시 부산진구 가야공원로 14번길 85,부산광역시 부산진구 개금동 173-2,35.1518328,129.0247937
08005,당감 골목시장,상설장,부산광역시 부산진구 당감로 16번길 22,부산광역시 부산진구 당감동 262-61,35.16328299,129.0408703
08005,서면중앙시장,상설장,부산광역시 부산진구 동성로 143,부산광역시 부산진구 전포2동 608-1,35.16085844,129.0632892
08005,양정시장,상설장,부산광역시 부산진구 동평로420번길 18 양정상가아파트,부산광역시 부산진구 양정동 390,35.17276467,129.0697618
08005,국제상가,상설장,부산광역시 부산진구 백양관문로 104-1,부산광역시 부산진구 당감동 791,35.1684408,129.028207
08005,당감새시장,상설장,부산광역시 부산진구 백양대로 60번길 64,부산광역시 부산진구 당감동 292-118,35.16506067,129.0421399
08005,동평새시장,상설장,부산광역시 부산진구 백양순환로164번길 13-2,부산광역시 부산진구 당감동 315-4,35.16666694,129.0408872
08005,골드테마거리,상설장,부산광역시 부산진구 범일로 134 중앙빌딩,부산광역시 부산진구 법천1동 836-1,35.14193851,129.0597745
08005,부전농수산물 새벽시장,상설장,부산광역시 부산진구 부전로 156,부산광역시 부산진구 부전동 347-1,35.16225251,129.0583022
08005,서면종합시장,상설장,부산광역시 부산진구 부전로 162번길 28,부산광역시 부산진구 부전동 347-40,35.16191514,129.0589849
08005,부산전자 종합시장,상설장,부산광역시 부산진구 부전로 196,부산광역시 부산진구 부전동 27-1,35.16375165,129.0624353
08005,성곡종합시장,상설장,부산광역시 부산진구 새싹로 207-6,부산광역시 부산진구 초읍동271-6,35.17476161,129.0480782
08005,서면시장,상설장,부산광역시 부산진구 서면로 56,부산광역시 부산진구 부전동 256-6,35.1556582,129.0581408
08005,초읍시장,상설장,부산광역시 부산진구 성지로51번길 60,부산광역시 부산진구 초읍동225,35.17731689,129.0528914
08005,개금큰시장,상설장,부산광역시 부산진구 엄광로 15,부산광역시 부산진구 개금동 615-20,35.14853427,129.0178858
08005,가야벽산상가,상설장,부산광역시 부산진구 엄광로 68 벽산아파트,부산광역시 부산진구 가야2동 669-9,35.14661344,129.0269894
08005,연지시장,상설장,부산광역시 부산진구 연지로14,부산광역시 부산진구 연지동 190-40,35.17090509,129.0513996
08005,부산평화시장,상설장,부산광역시 부산진구 자유평화로 7,부산광역시 부산진구 범천1동 839-52,35.14169728,129.0606748
08005,철뚝시장,상설장,부산광역시 부산진구 자유평화로3번길 14-15,부산광역시 부산진구 범천동 839-36,35.14222041,129.0615694
08005,전포놀이터시장,상설장,부산광역시 부산진구 전포대로 256번길 109,부산광역시 부산진구 전포동197-6,35.15899025,129.0670092
08005,부전상가,상설장,부산광역시 부산진구 중앙대로 755번길 21,부산광역시 부산진구 부전동 265-25,35.16034559,129.0595513
08005,부전가상골목시장,상설장,부산광역시 부산진구 중앙대로 775-21번길,부산광역시 부산진구 부전동 341-70,35.16220022,129.0612385
08005,부전시장,상설장,부산광역시 부산진구 중앙대로 783번길 23,부산광역시 부산진구 부전동 573,35.16323429,129.0609058
08005,부전 인삼시장,상설장,부산광역시 부산진구 중앙대로573-26,부산광역시 부산진구 부전동 573-26,35.16323429,129.0609058
08005,양정전통시장,상설장,부산광역시 부신진구 동평로 410,부산광역시 부신진구 양정동370,35.17359419,129.069435
08008,정이있는 구포시장,5일장,부산광역시 북구 구포시장2길 8,부산광역시 북구 구포1동 599-15,35.20835511,129.0038538
08008,만덕시장,상설장,부산광역시 북구 만덕1로24번길 8,부산광역시 북구 만덕1동 829,35.21449706,129.0353711
08008,구포축산물도매시장,상설장,부산광역시 북구 사상로583번길 25,부산광역시 북구 구포2동 1188-3번지,35.19619458,128.9892003
08008,만덕2동 제일상가시장,상설장,부산광역시 북구 함박봉로140번길 109,부산광역시 북구 만덕2동 945-2,35.20223944,129.0361289
08015,주례럭키종합상가,상설장,부산광역시 사상구 가야대로 284번길 12,부산광역시 사상구 주례동 595-4,35.14875176,129.00292
08015,부산광역시 철강판매 협동조합,상설장,부산광역시 사상구 강변대로 532 17-26,부산광역시 사상구 엄궁동 643-4,35.13320427,128.9666033
08015,부산광역시 건축자재판매협동조합,상설장,부산광역시 사상구 강변대로 570,부산광역시 사상구 엄궁동 642,35.13287325,128.9653822
08015,르네시떼,상설장,부산광역시 사상구 광장로7,부산광역시 사상구 괘법동 529-1,35.16433608,128.9777161
08015,부산 산업용품상협동조합,상설장,부산광역시 사상구 괘감로 37,부산광역시 사상구 괘법동 578,35.15975522,128.9804344
08015,우신종합상가,상설장,부산광역시 사상구 백양대로 880,부산광역시 사상구 모라동 1362,35.18311311,128.9912819
08015,고려쇼핑센터,상설장,부산광역시 사상구 사상로 207,부산광역시 사상구 괘법동 535-11,35.16361948,128.9841829
08015,모라전통시장,상설장,부산광역시 사상구 사상로 483,부산광역시 사상구 모라동 1089-3,35.18763087,128.9874369
08015,사상시장,상설장,부산광역시 사상구 사상로250번길58 괘법동,부산광역시 사상구 괘법동 379-1,35.16665715,128.9855085
08015,복이있는 덕포시장,상설장,부산광역시 사상구 사상로293번길12,부산광역시 사상구 덕포동 421-13,35.17128103,128.9822553
08015,부산산업용재유통상가,상설장,부산광역시 사상구 새벽로 131,부산광역시 사상구 감전동 152-2,35.15327872,128.9810797
08015,부산 새벽시장,상설장,부산광역시 사상구 새벽로 141,부산광역시 사상구 감전동 143-16,35.15414273,128.9824317
08015,감전제일상가시장,상설장,부산광역시 사상구 새벽로168번길 21-11,부산광역시 사상구 감전동 121-12,35.15632532,128.9845484
08015,감전시장,상설장,부산광역시 사상구 새벽로168번길 21-6,부산광역시 사상구 감전동121-12,35.1561407,128.984607
08015,학장반도프라자 상가,상설장,부산광역시 사상구 수산시 사상구 대동로 98,부산광역시 사상구 수산시 사상구 학장동 573-1,35.13729145,128.9791721
08015,주례현대무지개상가,상설장,부산광역시 사상구 주례로 93,부산광역시 사상구 주례동 530-5,35.14496383,129.0049861
08015,영해종합시장,상설장,부산광역시 사상구 학감대로 109-10,부산광역시 사상구 학장동 570-2,35.1407094,128.9879641
08015,구덕대림상가,상설장,부산광역시 사상구 학감대로49번길 62,부산광역시 사상구 학장동 167-3,35.13532021,128.9922406
08010,에덴시장,상설장,부산광역시 사하구 낙동대로535번길 28,부산광역시 사하구 하단2동 487-6,35.1114836,128.9629713
08010,에덴골목시장,상설장,부산광역시 사하구 낙동대로535번길 33,부산광역시 사하구 하단2동 500-29,35.11114755,128.9627212
08010,다대씨파크,상설장,부산광역시 사하구 다대동로 20,부산광역시 사하구 다대동 680-2,35.05514907,128.9719733
08010,신평골목시장,상설장,부산광역시 사하구 다대로134번길 27,부산광역시 사하구 신평1동 111-282,35.09108269,128.9771269
08010,신평종합시장,상설장,부산광역시 사하구 다대로134번길 44 신평시장상가아파트,부산광역시 사하구 신평1동 111-213,35.09162211,128.9767093
08010,괴정골목시장,상설장,부산광역시 사하구 사하로 198,,35.0993329,128.9937058
08010,하단시장,상설장,부산광역시 사하구 승학로2번길 1,부산광역시 사하구 당리동 302-7,35.10627751,128.9694939
08010,강천시장,상설장,부산광역시 사하구 옥천로 8,부산광역시 사하구 감천 1동 471,35.08826986,129.0055233
08010,감천2동시장,상설장,부산광역시 사하구 옥천로75번길 17,부산광역시 사하구 감천 2동 13-13,35.09387881,129.0088484
08010,장림시장,상설장,부산광역시 사하구 장림번영로 22,부산광역시 사하구 장림동 792-7,35.08093227,128.9677386
08010,장림골목시장,상설장,부산광역시 사하구 장림시장 5길 95,부산광역시 사하구 장림동 641-268,35.08046852,128.9676774
08010,사하시장,상설장,부산광역시 사하구 장평로 451,부산광역시 사하구 괴정동 550-38,35.0983507,128.986461
08010,하단오일시장,5일장,부산광역시 사하구 제석로17번길 1,부산광역시 사하구 하단 1동 620-8,35.10372011,128.9708028
08010,당리시장,상설장,부산광역시 사하구 제석로62번길 16,부산광역시 사하구 당리동 143-1,35.10546653,128.9753522
08010,가락타운상가시장,상설장,부산광역시 사하구 하신번영로 233 가락타운2 3단지,부산광역시 사하구 사하구 하단1동 1175,35.10107782,128.9579657
08002,서대신동골목시장,상설장,부산광역시 서구 구덕로295번길 4 서대신동2가,부산광역시 서구 서대신동2가 99-5,35.11042114,129.0173205
08002,서대신1동골목시장,상설장,부산광역시 서구 대영로 30번길 19-1 서대신동1가,부산광역시 서구 서대신동1가 149-4,35.10865755,129.0144325
08002,동대신1동골목시장,상설장,부산광역시 서구 대영로 74번길 4 동대신동1가,부산광역시 서구 동대신동1가129-6,35.11030807,129.0191909
08002,대신시장,상설장,부산광역시 서구 대영로 78 동대신동1가,부산광역시 서구 동대신동1가 113-1,35.1103293,129.0197017
08002,아미시장,상설장,부산광역시 서구 아미초장로 132 아미동2가,부산광역시 서구 아미동 2가 96-11,35.0996515,129.0174795
08002,충무동 해안시장,상설장,부산광역시 서구 자갈치로 14-12 충무동1가,부산광역시 서구 충무동 1가 43-1,35.09594124,129.0261031
08002,송남시장,상설장,부산광역시 서구 충무대로 34 암남동,부산광역시 서구 암남동 346-2,35.07851,129.0168309
08002,충무동골목시장,상설장,부산광역시 서구 충무대로267번길 5 충무동1가,부산광역시 서구 충무동1가 38-32,35.09428203,129.0236516
08002,충무동 새벽시장,상설장,부산광역시 서구 해안새벽시장길 68 남부민동,부산광역시 서구 남부민동 685-1,35.09276992,129.0249266
08014,동방시장,상설장,부산광역시 수영구 감포로8번길 10,부산광역시 수영구 민락동161-7,35.15912351,129.1212751
08014,망미중앙시장,상설장,부산광역시 수영구 과정로6번길7,부산광역시 수영구 망미동 420-25,35.17236834,129.1093334
08014,민락회타운시장,상설장,부산광역시 수영구 광남로 158,부산광역시 수영구 민락동 184-84,35.15516031,129.1186411
08014,삼익비치A상가시장,상설장,부산광역시 수영구 광안해변로 100,부산광역시 수영구 남천동 148-9,35.14375309,129.1153663
08014,삼익비치B상가시장,상설장,부산광역시 수영구 광안해변로 122,부산광역시 수영구 남천동 148-5,35.14579319,129.1149654
08014,민락골목시장,상설장,부산광역시 수영구 광안해변로 277번길39,부산광역시 수영구 민락동 231-40,35.15760964,129.1236523
08014,민락어패류시장,상설장,부산광역시 수영구 광안해변로 278,부산광역시 수영구 민락동 181-8,35.1556955,129.1243511
08014,민락씨랜드시장,상설장,부산광역시 수영구 광안해변로 299,부산광역시 수영구 민락동 181-228,35.15697403,129.1263963
08014,남천해변시장,상설장,부산광역시 수영구 광안해변로15번길 77,부산광역시 수영구 남천동556,35.13915613,129.1090408
08014,세흥시장,상설장,부산광역시 수영구 남천바다로 16,부산광역시 수영구 남천동 26-5,35.14940673,129.1123157
08014,망미삼성상가시장,상설장,부산광역시 수영구 망미로30번길 23,부산광역시 수영구 망미동777,35.16860867,129.1008259
08014,광안종합시장,상설장,부산광역시 수영구 무학로49번길 71,부산광역시 수영구 광안동 94-1,35.16442161,129.1181777
08014,광안어패류시장,상설장,부산광역시 수영구 민락수변로7번길 19,부산광역시 수영구 민락동181-72,35.15559064,129.1245342
08014,광안시장,상설장,부산광역시 수영구 수영로603번길 18,부산광역시 수영구 광안동559-2,35.16011763,129.1124667
08014,수영팔도시장,상설장,부산광역시 수영구 수영로725번길 36,부산광역시 수영구 수영동 305-3,35.16878215,129.1168966
08014,현대종합상가시장,상설장,부산광역시 수영구 수영로741번길 12,부산광역시 수영구 수영동541,35.16840801,129.1207324
08014,망미새상가시장,상설장,부산광역시 수영구 연수로275번길 9,부산광역시 수영구 망미동831,35.17361624,129.1007557
08014,망미종합시장,상설장,부산광역시 수영구 연수로310번길 16,부산광역시 수영구 망미동804,35.17180242,129.1035626
08013,거제시장,상설장,부산광역시 연제구 거제시장로14번길28,부산광역시 연제구 거제동 486-1,35.18193157,129.0727929
08013,연일시장,상설장,부산광역시 연제구 고분로 24,부산광역시 연제구 연산동636-28,35.18557217,129.0848775
08013,연천시장,상설장,부산광역시 연제구 과정로276번길28,부산광역시 연제구 연산동 364-1,35.18978408,129.0980891
08013,연미새시장,상설장,부산광역시 연제구 배산로22번길3,부산광역시 연제구 연산동 2122-26,35.17412578,129.0945796
08013,연동시장,상설장,부산광역시 연제구 연동로8번길 22,부산광역시 연제구 연산동312-18,35.18884338,129.0925228
08013,영남종합시장,상설장,부산광역시 연제구 중앙대로1031-1,부산광역시 연제구 연산동 1364-2,35.18077479,129.0770184
08004,남항시장,상설장,부산광역시 영도구 절영로 49번길 73-5,부산광역시 영도구 영선동2가 64-6,35.08890761,129.0422626
08004,청학시장,상설장,부산광역시 영도구 태종로 316번길 1,부산광역시 영도구 청학동 297-1,35.09660365,129.0603435
08004,영도봉래시장,상설장,부산광역시 영도구 태종로105번길 36,부산광역시 영도구 봉래동 3가 13-2,35.09272088,129.0432815
08001,만물의거리시장,상설장,부산광역시 중구 국제시장 2길24-1,부산광역시 중구 신창동4가 10-5,35.10148479,129.0285506
08001,부산 자갈밭시장,상설장,부산광역시 중구 남포동 자갈치해안로 52,부산광역시 중구 남포동4가 37-1,35.09661378,129.0305837
08001,영주시장,상설장,부산광역시 중구 대영로 242길,부산광역시 중구 영주동 595-3,35.11189976,129.0369848
08001,월드밸리,상설장,부산광역시 중구 대청로 60,부산광역시 중구 부평동2가 2,35.10280429,129.0263584
08001,보수종합시장,상설장,부산광역시 중구 보수대로 94,부산광역시 중구 보수동3가 46-1,35.10421143,129.0218075
08001,부평깡통시장,상설장,부산광역시 중구 부평1길,부산광역시 중구 부평동2가 16,35.1015592,129.0260206
08001,남포건어물도매시장,상설장,부산광역시 중구 용미길10번길1,부산광역시 중구 남포동1가 62-1,35.09683833,129.0347275
08001,신천지 시장,상설장,부산광역시 중구 자갈치로 33,부산광역시 중구 남포동6가 3,35.09705479,129.0278397
08001,신동아수산물시장,상설장,부산광역시 중구 자갈치로 42,부산광역시 중구 남포동5가 92,35.09672134,129.0286701
08001,자갈치시장,상설장,부산광역시 중구 자갈치해안로 52번길,부산광역시 중구 남포동4가 37-1,35.09661378,129.0305837
08001,창선상가,상설장,부산광역시 중구 중구로 44 331호,부산광역시 중구 부평동1가 13-6,35.10194037,129.0277411
08001,국제시장,상설장,부산광역시 중구 중구로 국제시장 2길 25호 2공구 서동 3층,부산광역시 중구 신창동 4가,,
08001,아리랑거리,상설장,부산광역시 중구 중구로30번길 12,부산광역시 중구 신창동 3가 17-1,35.10045748,129.0289689
08001,신창상가,상설장,부산광역시 중구 중구로34번길 21-1,부산광역시 중구 신창동1가 19-2,35.10117897,129.0302005
08001,부산데파트,상설장,부산광역시 중구 중앙대로 1,부산광역시 중구 중앙동7가 20-1,35.09830526,129.0367023
08001,새영주시장,상설장,부산광역시 중구 초량중로6번길 일원,부산광역시 중구 영주동 20-16,35.11270202,129.0363017
08009,해운대시장,상설장,부산광역시 해운대구 구남로41번길 22-1,부산광역시 해운대구 중1동 1394-193,35.16140387,129.1623153
08009,반송골목시장,상설장,부산광역시 해운대구 아랫반송로 39번길 18-1,부산광역시 해운대구 반송동 250-371,35.22428809,129.1503333
08009,반송시장,상설장,부산광역시 해운대구 아랫반송로21번길 41,부산광역시 해운대구 반송1동 709-12,35.22647416,129.14805
08009,반송큰시장(반송2동),상설장,부산광역시 해운대구 윗반송로51번길 86,부산광역시 해운대구 반송2동 40-762,35.23111739,129.1562096
08009,재송한마음시장,상설장,부산광역시 해운대구 재반로 81-20,부산광역시 해운대구 재송동 1089-18,35.18607539,129.1246062
08009,반여시장,상설장,부산광역시 해운대구 재반로226번길 48,부산광역시 해운대구 반여2동 1291 918,35.1977028,129.1334271
08009,반여3동골목시장,상설장,부산광역시 해운대구 재반로256번길 8,부산광역시 해운대구 반여3동 1607-2,35.19993941,129.1320531
08009,재송시장,상설장,부산광역시 해운대구 재송1로60번길 16 서해재송아파트,부산광역시 해운대구 재송1동 1080-5,35.18658572,129.1236759
08009,좌동재래시장,상설장,부산광역시 해운대구 좌동로91번길 20,부산광역시 해운대구 좌동 892,35.17306907,129.1744556
08009,우동종합상가시장,상설장,부산광역시 해운대구 해운대로383번길 37-10,부산광역시 해운대구 우2동 1092 16,35.17067972,129.1388575
08009,반여2동상가시장,상설장,부산광역시 해운대구 해운대로61번길 95-83,부산광역시 해운대구 반여2동 1291-1425,35.1960262,129.1290477
01023,영동전통시장,상설장,서울특별시 강남구 강남대로 128길 20 영동프라자 2동 204호,서울특별시 강남구 논현동 140,37.50999521,127.0238232
01023,강남시장,상설장,서울특별시 강남구 압구정로 2길 46,서울특별시 강남구 신사동 510-11,37.51876726,127.0206916
01023,신사 상가,상설장,서울특별시 강남구 압구정로29길 72-1,서울특별시 강남구 압구정동 454,37.53228798,127.028402
01023,청담삼익상가,상설장,서울특별시 강남구 학동로 101길 26,서울특별시 강남구 청담동 134-20,37.5224448,127.0576204
01025,고분다리전통시장,상설장,서울특별시 강동구 구천면로34길 13,서울특별시 강동구 천호동 393-32,37.54248956,127.1319288
01025,암사종합시장,상설장,서울특별시 강동구 상암로 11길 17,서울특별시 강동구 암사동 501-18,37.5505465,127.1287154
01025,명일전통시장,상설장,서울특별시 강동구 양재대로138길 20,서울특별시 강동구 명일동 333-2 일대,37.54953208,127.1449535
01025,둔촌역전통시장,상설장,서울특별시 강동구 양재대로91길20,서울특별시 강동구 성내동 416-12,37.52805886,127.1349692
01025,성내전통시장,상설장,서울특별시 강동구 천호대로162길 61,서울특별시 강동구 성내동 144-12,37.53416804,127.1278893
01025,길동복조리시장,상설장,서울특별시 강동구 천호대로193길 37,,37.53757106,127.1437617
01009,우이시장,상설장,서울특별시 강북구 노해로 23길 68,서울특별시 강북구 수유동 270-185,37.64603739,127.020016
01009,수유프라자,상설장,서울특별시 강북구 도봉로 261,서울특별시 강북구 수유동 63,37.63169253,127.0234675
01009,숭인시장,상설장,서울특별시 강북구 도봉로 45,서울특별시 강북구 미아동 60-5,37.61314356,127.0294532
01009,수유시장,상설장,서울특별시 강북구 도봉로67길 18,서울특별시 강북구 수유1동 54-5,37.63072891,127.0226681
01009,수유전통시장,상설장,서울특별시 강북구 도봉로67길 18,서울특별시 강북구 수유동 54-5,37.63072891,127.0226681
01009,수유재래시장,상설장,서울특별시 강북구 도봉로71길 26,서울특별시 강북구 수유1동 50-77,37.63153004,127.0223303
01009,장미원 골목시장,상설장,서울특별시 강북구 삼양로 464,서울특별시 강북구 수유동 316-11,37.64463283,127.0160158
01009,수유북부시장,상설장,서울특별시 강북구 삼양로 91길 11의 12,서울특별시 강북구 수유동 413-2,37.63675807,127.016487
01009,동북시장,상설장,서울특별시 강북구 솔샘로 233,서울특별시 강북구 미아동 701-3,37.62042225,127.0190955
01009,강북북부시장(주),상설장,서울특별시 강북구 한천로 123길 26,서울특별시 강북구 번동 413-3,37.63623599,127.0303422
01009,남한시장(주)수유중앙시장,상설장,서울특별시 강북로 노해로 17길 21,서울특별시 강북로 수유동 32-2,37.64033675,127.0211763
01016,까치산시장,상설장,서울특별시 강서구 강서로 12길 14,서울특별시 강서구 화곡동 342-16,37.53153099,126.8478603
01016,신월중앙시장,상설장,서울특별시 강서구 강서로 5나길 109,서울특별시 강서구 화곡동 929-1,37.52796881,126.8419059
01016,남부골목시장,상설장,서울특별시 강서구 곰달래로 55길4 화곡동,서울특별시 강서구 화곡동 797-7,37.5322382,126.8607298
01016,화곡본동시장,상설장,서울특별시 강서구 까치산로 35,서울특별시 강서구 화곡본동 98-45,37.54288484,126.8441295
01016,화곡남부시장,상설장,서울특별시 강서구 등촌로5길 80번지,서울특별시 강서구 화곡동 830-1,37.53307069,126.8589518
01016,방신전통시장,상설장,서울특별시 강서구 방화동로16길32,서울특별시 강서구 방화동 579-1,37.57150834,126.812647
01016,화곡중앙시장,상설장,서울특별시 강서구 월정로 30길 66,서울특별시 강서구 화곡동 362-144,37.53488408,126.8395063
01016,대원종합시장,상설장,서울특별시 강서구 화곡로21길 78,서울특별시 강서구 화곡3동 1023,37.54448674,126.8364753
01016,등마루시장,상설장,서울특별시 강서구 화곡로68길 120,서울특별시 강서구 등촌동 637-10,37.55666003,126.8602651
01021,봉천중앙시장,상설장,서울특별시 관악구 관악로 211,서울특별시 관악구 봉천동 32-2,37.48419585,126.9543274
01021,관악신사시장,상설장,서울특별시 관악구 관천로19길 89,서울특별시 관악구 신림동 494-34,37.48679165,126.9170725
01021,우림시장,상설장,서울특별시 관악구 난곡로 26길 19,서울특별시 관악구 신림동 638-50,37.4704665,126.921091
01021,신림종합시장,상설장,서울특별시 관악구 남부순환로 157길 63,서울특별시 관악구 신림동 505-1,37.4846461,126.9170932
01021,인천시장,상설장,서울특별시 관악구 남부순환로246나길 14,서울특별시 관악구 봉천동 1636-4,37.47486164,126.9647704
01021,신림현대종합상가,상설장,서울특별시 관악구 신림로 29길 3-20,서울특별시 관악구 신림동 1694,37.47462652,126.9338049
01021,관악종합시장,상설장,서울특별시 관악구 신원로 23,서울특별시 관악구 신림동 1602-1,37.4815767,126.928063
01021,신원시장,상설장,서울특별시 관악구 신원로3길 20-3,서울특별시 관악구 신원동 1599-3,37.48206598,126.9273791
01021,봉천현대시장,상설장,서울특별시 관악구 양녕로 49,서울특별시 관악구 봉천동 503-2,37.48643059,126.946515
01021,봉일시장,상설장,서울특별시 관악구 은천로 28,서울특별시 관악구 봉천동 951-25,37.48592467,126.9383804
01021,조원동 펭귄시장,상설장,서울특별시 관악구 조원로16길 27,서울특별시 관악구 신림동 541의 6,37.48314523,126.9114212
01021,신림중앙시장,상설장,서울특별시 관악구 조원로16길 27,서울특별시 관악구 조원동 541,37.48314523,126.9114212
01021,봉천제일종합시장,상설장,서울특별시 관악구 청룡2길 29,서울특별시 관악구 청룡동 921-1,37.48124954,126.9444156
01005,중곡제일시장,상설장,서울특별시 광진구 긴고랑로11길 11,서울특별시 광진구 중곡동 229-5,37.56390828,127.0813014
01005,중곡제일시장,상설장,서울특별시 광진구 긴고랑로11길 14,서울특별시 광진구 중곡동 221-6번지,37.56388274,127.0817652
01005,광성시장,상설장,서울특별시 광진구 능동로 47길 30,서울특별시 광진구 중곡동 229-15,37.5635863,127.0811202
01005,한아름시장,상설장,서울특별시 광진구 능동로13길 39,서울특별시 광진구 화양동 10-1,37.54395902,127.0697577
01005,영동교 골목시장,상설장,서울특별시 광진구 동일로10길 47,서울특별시 광진구 자양4동 40-38,37.53752561,127.0642052
01005,능동로 골목시장,상설장,서울특별시 광진구 뚝섬로 30길 23,서울특별시 광진구 자양동 553-219,37.53514507,127.0666557
01005,노룬산 시장,상설장,서울특별시 광진구 뚝섬로 491 노룬산시장,서울특별시 광진구 자양동 44-2,37.5364854,127.0648775
01005,노룬산골목시장,상설장,서울특별시 광진구 뚝섬로25길 6,서울특별시 광진구 자양동 553-60,37.53636441,127.0653406
01005,자양전통시장,상설장,서울특별시 광진구 뚝섬로47길 45-2,서울특별시 광진구 자양동 613-11 일원,37.53438238,127.0791889
01005,조양시장,상설장,서울특별시 광진구 아차산로 30길 39,서울특별시 광진구 자양동 6-20,37.53899664,127.0674893
01005,화양제일골목시장,상설장,서울특별시 광진구 아차산로29길 59,서울특별시 광진구 화양동 34-72호,37.54349132,127.0692921
01005,신성시장,상설장,서울특별시 광진구 용마산로 50,서울특별시 광진구 중곡동 79-7,37.55808075,127.0880508
01017,개봉중앙시장,상설장,서울특별시 구로구 개봉로 17길 34,서울특별시 구로구 개봉동 324-1,37.49178393,126.8540716
01017,고척근린시장,상설장,서울특별시 구로구 고척로 40길 19,서울특별시 구로구 고척동 269-1,37.50195711,126.8511199
01017,개봉프라자,상설장,서울특별시 구로구 고척로40길 19,서울특별시 구로구 고척동 269의1,37.50195711,126.8511199
01017,구로시장,상설장,서울특별시 구로구 구로동로22길 17-4,서울특별시 구로구 구로동734-17 2층,37.48963005,126.8856198
01017,남구로시장,상설장,서울특별시 구로구 구로동로26길 41,서울특별시 구로구 구로2동 730-52,37.49020847,126.8864324
01017,가리봉시장,상설장,서울특별시 구로구 우마3길 15,서울특별시 구로구 가리봉동 123-62,37.48167727,126.8890779
01017,고척골목시장,상설장,서울특별시 구로구 중앙로8길 10 고척동,서울특별시 구로구 고척동 51-10,37.5033751,126.8627093
01018,은행나무시장,상설장,서울특별시 금천구 금하로 25길 9 지하1층,서울특별시 금천구 시흥동 828-45,37.45131824,126.9093491
01018,비단길현대시장,상설장,서울특별시 금천구 독산로 27길 52,서울특별시 금천구 시흥동 828-45,37.45772651,126.9048774
01018,남문시장,상설장,서울특별시 금천구 시흥대로 144길 17,서울특별시 금천구 독산동 984-10,37.4737667,126.900424
01018,대명여울빛거리시장,상설장,서울특별시 금천구 시흥대로 212 시흥동,서울특별시 금천구 시흥동 889-13,37.45277308,126.9016494
01011,공릉동도깨비시장,상설장,서울특별시 노원구 동일로180길 37,서울특별시 노원구 공릉1동 566-20외 65필지,37.62269037,127.0762493
01011,상계중앙시장,상설장,서울특별시 노원구 상계로 27길 32,서울특별시 노원구 상계동 389번지 일원 49필지,37.65996021,127.0698633
01010,창동신창시장,상설장,서울특별시 도봉구 덕릉로 57길 17,서울특별시 도봉구 창동 578-47,37.63943514,127.0374555
01010,창동골목시장,상설장,서울특별시 도봉구 덕릉로58길 16,서울특별시 도봉구 창동 557-45 일대,37.63840117,127.0391454
01010,방학동도깨비시장,상설장,서울특별시 도봉구 도당로 13가길 17 2층,서울특별시 도봉구 방학동 633-15,37.66594127,127.0362062
01010,신도봉시장,상설장,서울특별시 도봉구 도당로 27길 60,서울특별시 도봉구 도봉동 611,37.67001525,127.0411237
01010,쌍문시장,상설장,서울특별시 도봉구 도봉로113길 20,서울특별시 도봉구 쌍문동 94-29,37.6483674,127.032968
01010,백운시장,상설장,서울특별시 도봉구 삼양로154길 30,서울특별시 도봉구 쌍문동 495-80,37.65549577,127.0148849
01006,청량리농수산물시장,상설장,서울특별시 동대문구 경동시장로 22,서울특별시 동대문구 제기동 629-2,37.58091917,127.0408796
01006,청량리전통시장,상설장,서울특별시 동대문구 경동시장로2길 49-3,서울특별시 동대문구 청량리동 773,37.58061952,127.043606
01006,청량종합도매시장,상설장,서울특별시 동대문구 경동시장로30-7,서울특별시 동대문구 제기동 620-44,37.58194298,127.0408559
01006,답십리건축자재시장,상설장,서울특별시 동대문구 고미술로 49,서울특별시 동대문구 답십리동 483번지 일대,37.56745985,127.0534875
01006,청량리수산시장,상설장,서울특별시 동대문구 고산자로 34길 48의1,서울특별시 동대문구 용두동 20-1,37.57807282,127.0409508
01006,경동광성상가,상설장,서울특별시 동대문구 고산자로 464,서울특별시 동대문구 제기동 917,37.58099105,127.0388095
01006,경동시장,상설장,서울특별시 동대문구 고산자로36길 3,서울특별시 동대문구 제기동 1036,37.57903777,127.0391429
01006,답십리 시장,상설장,서울특별시 동대문구 답신리로51길 4-1,서울특별시 동대문구 답십리2동 66-17,37.57316302,127.0586903
01006,서울약령시장,상설장,서울특별시 동대문구 약령중앙로26,서울특별시 동대문구 제기동 1082,37.58060041,127.0375866
01006,동서시장,상설장,서울특별시 동대문구 왕산로33길 13,서울특별시 동대문구 제기동 650,37.57972596,127.0412215
01006,청량리 청과물시장,상설장,서울특별시 동대문구 왕산로33길 16,서울특별시 동대문구 제기동 635-35,37.57986447,127.0424198
01006,전통로타리시장,상설장,서울특별시 동대문구 전농로 15길 7,서울특별시 동대문구 전농동 295-52,37.57814435,127.0570279
01006,답십리현대시장,상설장,서울특별시 동대문구 전농로 4길 38,서울특별시 동대문구 답십리동 967-5,37.5667821,127.0586488
01006,동부시장,상설장,서울특별시 동대문구 천호대로 281,서울특별시 동대문구 답십리동 495-1,37.56757575,127.0522092
01006,청량리 종합시장,상설장,서울특별시 동대문구 홍릉로 1길 68-3,서울특별시 동대문구 제기동 647-11,37.58015661,127.0410378
01006,회기시장,상설장,서울특별시 동대문구 회기로25길 11,서울특별시 동대문구 회기동 57-220,37.59097015,127.0549791
01020,성대전통시장,상설장,서울특별시 동작구 국사봉1길 41,서울특별시 동작구 상도동 324-68,37.49921775,126.9308567
01020,남성사계시장,상설장,서울특별시 동작구 동작대로29길 8 사당동,서울특별시 동작구 사당동 88-3,37.48816011,126.9815648
01020,논동인정시장,상설장,서울특별시 동작구 매봉로 177,서울특별시 동작구 본동 187-1,37.51223042,126.9518967
01020,남성역골목시장,상설장,서울특별시 동작구 사당로 16가길 19,서울특별시 동작구 사당동 267-4,37.48298787,126.9723253
01020,사당시장,상설장,서울특별시 동작구 사당로244,서울특별시 동작구 사당동 318-8 사당시장,37.48288276,126.9753375
01020,강남시장,상설장,서울특별시 동작구 상도로 357 아파트 시장,서울특별시 동작구 상도동 488 강남상가아파트,37.49693976,126.9535408
01020,상도전통시장,상설장,서울특별시 동작구 상도로 37길 62,서울특별시 동작구 상도동 367-2,37.49874471,126.9521015
01020,성대종합시장,상설장,서울특별시 동작구상도로102,서울특별시 동작구 상도동 324-1 성대시장,37.4999427,126.9317763
01014,영진시장,상설장,서울특별시 마포구 동교로12길 21 서교동,서울특별시 마포구 서교동 485-14,37.55346487,126.9126921
01014,마포시장,상설장,서울특별시 마포구 마포대로6길 16 만리재로 23 공덕동,서울특별시 마포구 공덕동 256-5 256-30,37.54539208,126.9533186
01014,공덕시장,상설장,서울특별시 마포구 만리재로 19 공덕동,서울특별시 마포구 공덕동 256-10,37.54479479,126.9532582
01014,망원동 월드컵시장,상설장,서울특별시 마포구 망원로7길 3 31 망원동,서울특별시 마포구 망원동 424-7,37.55873145,126.9050809
01014,망원시장,상설장,서울특별시 마포구 망원로8길 3 70 망원동,서울특별시 마포구 망원동 486-37,37.55715742,126.9059941
01014,동진시장,상설장,서울특별시 마포구 성미산로 198 연남동,서울특별시 마포구 연남동 227-15,37.56237655,126.9267634
01014,아현시장,상설장,서울특별시 마포구 아현동 굴레방로 7길 8,서울특별시 마포구 아현동 327-40,37.55640684,126.9550808
01014,마포농수산물시장,상설장,서울특별시 마포구 월드컵로 235 성산동,서울특별시 마포구 성산동 533-1,37.56519935,126.8984828
01014,서교시장,상설장,서울특별시 마포구 홍익로3길 20 서교동,서울특별시 마포구 서교동 375-1,37.55466985,126.9188623
01013,백련시장,상설장,서울특별시 서대문구 가재울로6길 53-87 남가좌동 백련시장아파트,서울특별시 서대문구 남가좌동 345-4,37.57700143,126.923101
01013,사러가쇼핑,상설장,서울특별시 서대문구 연희맛로 23 연희동,서울특별시 서대문구 연희동 131의 1,37.56715459,126.9296612
01013,서대문구 인왕시장,상설장,서울특별시 서대문구 인왕시장길 24 홍제동,서울특별시 서대문구 홍제3동 298-7,37.59121811,126.9433194
01013,영천시장,상설장,서울특별시 서대문구 통일로 189-1 영천시장,서울특별시 서대문구 영천동 323,37.5703343,126.9618476
01013,포방터시장,상설장,서울특별시 서대문구 포방터길 43,서울특별시 서대문구 홍은동 9-123,37.59867095,126.9488969
01013,유진상가,상설장,서울특별시 서대문구 홍은동 통일로 484,서울특별시 서대문구 홍은동 48-84,37.5916068,126.9429418
01022,양재시장(주),상설장,서울특별시 서초구 남부순환로356길 15 양재동,서울특별시 서초구 양재동1-7,37.48431085,127.037966
01022,남부종합시장,상설장,서울특별시 서초구 방배중앙로 27길 17,서울특별시 서초구 방배동 767-1 남부종합시장,37.49499219,126.9848056
01004,금남시장,상설장,서울특별시 성동구 금호산2길 32 2층,서울특별시 성동구 금호동3가 308,37.54862752,127.0230443
01004,마장축산물,상설장,서울특별시 성동구 마장로35길 68 4층,서울특별시 성동구 마장동 439-1 4층,37.57068248,127.0412753
01004,뚝도시장,상설장,서울특별시 성동구 성수이로 32-15,서울특별시 성동구 성수동2가 335-16,37.53780064,127.054827
01004,용담푸르미르상가시장,상설장,서울특별시 성동구 용답중앙길 59,서울특별시 성동구 용답동 57-17,37.56416885,127.0525388
01008,돈암시장,상설장,서울특별시 성북구 동소문로 18길 12-3,서울특별시 성북구 동소문동5가 59-1,37.5916663,127.0157124
01008,길음시장,상설장,서울특별시 성북구 동소문로 227 길음동,서울특별시 성북구 길음동 535-8 길음시장,37.60278063,127.021592
01008,정릉시장,상설장,서울특별시 성북구 보국문로11길 18,서울특별시 성북구 정릉동 400-8,37.60847133,127.0096809
01008,장위전통시장,상설장,서울특별시 성북구 장위로 36길 46-1,서울특별시 성북구 장위동 68-225,37.61208772,127.0508053
01008,정릉아리랑시장,상설장,서울특별시 성북구 정릉로26가길 36,서울특별시 성북구 정릉동 443-1,37.60276767,127.0110392
01008,돌곶이시장(구석관황금시장),상설장,서울특별시 성북구 한천로 73길 33,서울특별시 성북구 석관동 279-16,37.60950239,127.0616578
01024,방이시장,상설장,서울특별시 송파구 가락로 243,서울특별시 송파구 방이동 137-8,37.50995241,127.1178662
01024,마천시장,상설장,서울특별시 송파구 마천로45길 23 113호,서울특별시 송파구 마천동 140-2번지,37.49808049,127.1506963
01024,마천중앙시장,상설장,서울특별시 송파구 마천로45길 2층,서울특별시 송파구 마천동 146-7,37.4984143,127.1513355
01024,풍납시장,상설장,서울특별시 송파구 바람드리길 15-1 풍납동,서울특별시 송파구 풍납동 88-61,37.53802809,127.1176834
01024,새마을시장,상설장,서울특별시 송파구 백제고분로15길 42 잠실동 지하1층,서울특별시 송파구 잠실동 207-4 지하1층,37.50908943,127.0849001
01024,석촌시장,상설장,서울특별시 송파구 송파대로 37길 52 지층,서울특별시 송파구 석촌동 274-8 지층,37.50017287,127.1065252
01015,신곡종합시장,상설장,서울특별시 양천구 남부순환로79길 37,서울특별시 양천구 신월동 575-17,37.518369,126.8431967
01015,목사랑시장,상설장,서울특별시 양천구 목동중앙남로7길 8 목동,서울특별시 양천구 목동 726-18 목4동시장고객지원센터,37.53761613,126.866218
01015,목2동시장,상설장,서울특별시 양천구 목동중앙북로 16길3,서울특별시 양천구 목동 526,37.5460499,126.8738866
01015,목동깨미시장,상설장,서울특별시 양천구 목동중앙북로6길 5 목동,서울특별시 양천구 목동 617-13 목3동시장 고객지원센터,37.54818453,126.8652286
01015,오목교 중앙시장,상설장,서울특별시 양천구 신목로4길 25 신정동,서울특별시 양천구 신정2동 119-32,37.52027037,126.875742
01015,경창시장,상설장,서울특별시 양천구 오목로9길 31,서울특별시 양천구 신월동 447-8,37.52493416,126.8421214
01015,신영시장,상설장,서울특별시 양천구 월정로 161-5 2층,서울특별시 양천구 신월동 114-18 신영시장고객지원센터,37.53301405,126.8360249
01015,신정제일시장,상설장,서울특별시 양천구 중앙로34길 30,서울특별시 양천구 신정1동 1030-6,37.52084193,126.8536838
01015,우성상가,상설장,서울특별시 양천구 지양로 78,서울특별시 양천구 신월동 928-1,37.52265956,126.8335711
01019,대신시장,상설장,서울특별시 영등포구 도신로 60길 7,서울특별시 영등포구 신길동 116-15,37.51107124,126.9175858
01019,대림중앙시장,상설장,서울특별시 영등포구 디지털로 372번지,서울특별시 영등포구 대림동 1028-4,37.49038353,126.9012678
01019,영일시장,상설장,서울특별시 영등포구 문래로30길 27,서울특별시 영등포구 문래동3가 10,37.51613516,126.9007193
01019,영등포 유통상가,상설장,서울특별시 영등포구 영등포로 109 당산동2가,서울특별시 영등포구 당산동2가 30-2 영등포유통상가,37.52241744,126.8939303
01019,삼국시장,상설장,서울특별시 영등포구 영등포로 219 영등포동5가,서울특별시 영등포구 영등포동5가 20-62,37.52014415,126.9057495
01019,영신상가,상설장,서울특별시 영등포구 영등포로 225 영등포동5가,서울특별시 영등포구 영등포동5가 18-1,37.51992006,126.9066547
01019,동남상가,상설장,서울특별시 영등포구 영등포로 37길4,서울특별시 영등포구 영등포동5가 24 동남상가아파트,37.52059746,126.9056598
01003,보광시장,상설장,서울특별시 용산구 보광로 30,서울특별시 용산구 보광동 260-8 보광시장상가 주,37.52719632,127.0002892
01003,신흥시장,상설장,서울특별시 용산구 신흥로 95-9 용산동2가,서울특별시 용산구 용산동 2가 1-480,37.54532379,126.9850855
01003,이촌시장,상설장,서울특별시 용산구 이촌로75길 16-9,서울특별시 용산구 이촌동 301-53 이촌종합상가,37.52073939,126.9747838
01003,이태원시장,상설장,서울특별시 용산구 이태원로14길 6,서울특별시 용산구 이태원동 56-9 이태원시장,37.53381836,126.9900484
01003,후암시장,상설장,서울특별시 용산구 한강대로104길 77,서울특별시 용산구 후암동 103,37.55038071,126.9766339
01003,만리시장,상설장,서울특별시 용산구 효창원로 270 서계동,서울특별시 용산구 서계동 260-1 만리시장,37.5513334,126.963696
01003,용문시장,상설장,서울특별시 용산구 효창원로40길 13,,37.53662269,126.9597957
01012,대조시장,상설장,서울특별시 은평구 불광로 13,서울특별시 은평구 대조동 12-3,37.60986578,126.9277375
01012,연서시장,상설장,서울특별시 은평구 연서로 247 불광동,서울특별시 은평구 불광동 310-4,37.61969094,126.922172
01012,대림골목시장,상설장,서울특별시 은평구 응암로 12길 8,서울특별시 은평구 응암동 602-1,37.58791373,126.9175082
01012,신응암시장,상설장,서울특별시 은평구 응암로22길3-1,서울특별시 은평구 응암동 427-130,37.5939075,126.9186943
01012,대림시장,5일장,서울특별시 은평구 응암로4길 22,서울특별시 은평구 응암동 754-1,37.58679729,126.9177421
01012,증산종합시장,상설장,서울특별시 은평구 증산로3길 12 증산동,서울특별시 은평구 증산동 184-9,37.58146885,126.9050616
01012,제일시장,상설장,서울특별시 은평구 통일로 731 대조동,서울특별시 은평구 대조동 14-1,37.61062266,126.9294663
01001,신설 종합시장,상설장,서울특별시 종로구 난계로27길 51,서울특별시 종로구 숭인동 206-9 신설종합시장,37.57266959,127.0203448
01001,통인시장,상설장,서울특별시 종로구 자하문로 15길 18,서울특별시 종로구 통인동 10-3,37.580767,126.9699476
01001,동대문종합시장,상설장,서울특별시 종로구 종로 266 동대문종합시장,서울특별시 종로구 종로6가 289-3 동대,37.57070649,127.0073287
01001,동대문종합시장신관,상설장,서울특별시 종로구 종로 272 종로6가,서울특별시 종로구 종로 266 동대문종합시장 신관지하1층81호,37.57081871,127.0080914
01001,동대문 종합시장 D상가,상설장,서울특별시 종로구 종로266종합시장디동,서울특별시 종로구 종로6가 262-1 동대문종합시장디동,37.57070649,127.0073287
01001,종로신진시장,상설장,서울특별시 종로구 종로38길 16,서울특별시 종로구 종로5가 225-21,37.57022828,127.0049462
01001,동문시장,상설장,서울특별시 종로구 종로44길 14,서울특별시 종로구 창신동 436-41 동문상가,37.57051095,127.011128
01001,광장시장,상설장,서울특별시 종로구 창경궁로 88,서울특별시 종로구 예지동 2-1,37.57011251,126.9997072
01001,한일상가,상설장,서울특별시 종로구 청계천로 229 종로5가,서울특별시 종로구 종로5가 314-7 청오가방도매상가,37.5701341,127.003025
01002,자유상가,상설장,서울특별시 중구 남대문로 36 회현동1가,서울특별시 중구 회현동1가 202-1,37.56095855,126.9797671
01002,삼익패션타운,상설장,서울특별시 중구 남대문시장 8길 7 삼익패션타운,부산광역시 부산진구 범천1동 839-52,37.56043529,126.9789566
01002,서울남대문시장,상설장,서울특별시 중구 남대문시장4길 21 일대,서울특별시 중구 남창동 49-1 일대,37.55918636,126.9776537
01002,방산종합시장,상설장,서울특별시 중구 동호로37길 20 주교동,서울특별시 중구 주교동 19-1 방산종합시장,37.56872417,127.0008056
01002,제일평화시장,상설장,서울특별시 중구 마장로 13 신당동,서울특별시 중구 신당동 775 제일평화시장,37.56851432,127.0114021
01002,벨포스트(에리어식스),상설장,서울특별시 중구 마장로 19 신당동,서울특별시 중구 신당동 776,37.56814161,127.011974
01002,Team204,상설장,서울특별시 중구 마장로 30,서울특별시 중구 신당동 204-48 외 3필지,37.56771279,127.0131966
01002,테크노상가,상설장,서울특별시 중구 마장로1가길 17 테크노상가,서울특별시 중구 신당동 213-51 엠씨프라자,37.56884578,127.0132375
01002,광희패션몰,상설장,서울특별시 중구 마장로1길 21,서울특별시 중구 신당동 777 광희시장,37.56867293,127.0119155
01002,숭례문수입상가,상설장,서울특별시 중구 소월로 3,서울특별시 중구 남창동 51-1 롯데손해보험빌딩,37.55937231,126.9762026
01002,대림상가,상설장,서울특별시 중구 을지로 157,서울특별시 중구 산림동 207-2,37.5671459,126.9954512
01002,신중부시장,상설장,서울특별시 중구 을지로30길 29 오장동 일대,서울특별시 중구 오장동 44-8 중부빌딩 일대,37.56553374,126.9994062
01002,중부시장,상설장,서울특별시 중구 을지로36길 35 오장동 일대,서울특별시 중구 오장동 139-11 일대,37.56506341,127.0019051
01002,남평화시장,상설장,서울특별시 중구 장충단로 282-10 신당동,서울특별시 중구 신당동 772 남평화시장,37.5691712,127.010836
01002,동화상가(주),상설장,서울특별시 중구 장충단로13길 34 동화상가,서울특별시 중구 을지로6가 17-415,37.56860486,127.006912
01002,청계 상가,상설장,서울특별시 중구 청계천로 160,서울특별시 중구 산림동 207-1,37.56797977,126.995365
01002,통일상가,상설장,서울특별시 중구 청계천로 260-6,서울특별시 중구 을지로6가 17-11,37.56916306,127.0062102
01002,평화시장,상설장,서울특별시 중구 청계천로 274 일대,서울특별시 중구 을지로6가 17-48 일대,37.56942586,127.0080476
01002,신평화패션타운,상설장,서울특별시 중구 청계천로 298 신당동,서울특별시 중구 신당동 217-1 신평화상가,37.56945382,127.0110696
01002,동평화시장,상설장,서울특별시 중구 청계천로 318 동평화시장 7층,서울특별시 중구 신당동 217-92 동평화의류상가,37.56935658,127.0137915
01002,청평화시장,상설장,서울특별시 중구 청계천로 334 신당동,서울특별시 중구 신당동 217-91 청평화시장,37.56946664,127.0149365
01002,서울중앙시장,상설장,서울특별시 중구 퇴계로 85길 36 일대,서울특별시 중구 황학동 442 일대,37.56738265,127.0197632
01002,황학시장,상설장,서울특별시 중구 퇴계로85길 36,서울특별시 중구 황학동 442,37.56738265,127.0197632
01002,신중앙시장,상설장,서울특별시 중구 퇴계로85길 36 황학동 일대,서울특별시 중구 황학동 442 일대,37.56738265,127.0197632
01007,중랑동부시장,상설장,서울특별시 중랑구 동일로109길 31-5,서울특별시 중랑구 면목동 183-118,37.59152277,127.0784934
01007,태능엔터피아,상설장,서울특별시 중랑구 동일로129길 35,서울특별시 중랑구 중화동 314-1 태능에셈빌,37.59922257,127.0775053
01007,장미제일시장,상설장,서울특별시 중랑구 동일로143길 36,서울특별시 중랑구 중화동 309-1,37.60519028,127.0765356
01007,중랑교쇼핑,상설장,서울특별시 중랑구 망우로 32길 23,서울특별시 중랑구 상봉동 129-9 중랑교쇼핑센터,37.59294806,127.0771147
01007,우림시장,상설장,서울특별시 중랑구 망우로62길 52-4 망우동,서울특별시 중랑구 망우동 463-44 우림시장 편의시설,37.59677182,127.0982722
01007,면목시장,상설장,서울특별시 중랑구 면목로39길 11,서울특별시 중랑구 면목동 650 카멜리아쇼핑센타,37.57955168,127.0862991
01007,사가정시장,상설장,서울특별시 중랑구 면목로44길 16,서울특별시 중랑구 면목동 472-45,37.58108117,127.0893792
01007,동원시장,상설장,서울특별시 중랑구 면목로74길 45 면목동,서울특별시 중랑구 면목동 101-1 동원시장,37.58983834,127.0898932
01007,신아타운,상설장,서울특별시 중랑구 봉화산로 194 신내동,서울특별시 중랑구 신내동 666 신아타운,37.60645263,127.094707
01007,동성타워프라자,상설장,서울특별시 중랑구 봉화산로 221,서울특별시 중랑구 신내동 786 동성타워프라자,37.6080276,127.0972055
01007,면목골목시장,상설장,서울특별시 중랑구 사가정로50길 84,서울특별시 중랑구 면목동 666-15,37.57748534,127.0844361
01007,동원전통종합시장,상설장,서울특별시 중랑구 상봉로11길 27-3 면목동,서울특별시 중랑구 면목동 74-58,37.5898242,127.092107
16001,세종대평시장,5일장,세종특별자치시 금남면 대평시장1길 17-2,세종특별자치시 금남면 용포리 205-42,36.46726733,127.2820588
16001,부강전통시장,5일장,세종특별자치시 부강면 부강5길 18,세종특별자치시 부강면 부강리 475-1,36.52850118,127.3688825
16001,전의왕의물시장,5일장,세종특별자치시 전의면 장터길33,세종특별자치시 전의면 읍내리 236-2 전의시장고객편의시설,36.67774034,127.2058789
16001,세종전통시장,5일장,세종특별자치시 조치원읍 조치원8길 42,세종특별자치시 조치원읍 정리 19-1,36.59978935,127.3006116
09002,울산산업공구월드,상설장,울산광역시 남구 갈밭로 24 삼산동,울산광역시 남구 삼산동 1591-4 울산산업공구월드,35.53578533,129.3426384
09002,신정평화시장,상설장,울산광역시 남구 봉월로 67번길 17,울산광역시 남구 신정동 1600-3 신정평화시장,35.53834025,129.3035365
09002,수암종합시장,상설장,울산광역시 남구 수암로 128-2 야음동,울산광역시 남구 야음동 698-1,35.52786077,129.32067
09002,수암상가시장,상설장,울산광역시 남구 수암로 128번길 12,울산광역시 남구 야음동 697-9,35.52697636,129.3207645
09002,야음상가시장,상설장,울산광역시 남구 수암로 244-6,울산광역시 남구 야음동 815-10,35.52361503,129.3318642
09002,울산번개시장,상설장,울산광역시 남구 신선로184번길 46-1 야음동,울산광역시 남구 야음동 375-55,35.520238,129.3367705
09002,신정상가시장,상설장,울산광역시 남구 월평로47번길 15,울산광역시 남구 신정동 616-1,35.54300662,129.3101169
09002,(주)신정시장,상설장,울산광역시 남구 월평로47번길 7,울산광역시 남구 신정동 630-1,35.54233752,129.3102795
09003,남목마성시장,상설장,울산광역시 동구 남목17길 9 동부동,울산광역시 동구 동부동 310-2,35.54272388,129.4273867
09003,대송농수산물시장,상설장,울산광역시 동구 대송1길 49 화정동,울산광역시 동구 화정동 167-15,35.4994779,129.4212282
09003,동울산종합시장,상설장,울산광역시 동구 진성14길 77 전하동,울산광역시 동구 전하동 661-1,35.50883074,129.4254286
09003,월봉시장,상설장,울산광역시 동구 진성14길 94 전하동,울산광역시 동구 화정동 647-2,35.49479387,129.4240557
09004,화봉종합시장,상설장,울산광역시 북구 상방로 94,울산광역시 북구 화봉동 448-2,35.58881997,129.3658257
09004,염포시장,상설장,울산광역시 북구 새장터6길 4,울산광역시 북구 염포동 194-1,35.53552572,129.390746
09004,호계공설시장,상설장+5일장,울산광역시 북구 호계3길 17-11,울산광역시 북구 호계동 869-1 호계공설시장,35.62361611,129.355738
09005,봉계공설시장,5일장,울산광역시 울주군 두동면 계명3길 9,울산광역시 울주군 두동면 봉계리 525,35.71338182,129.1991738
09005,언양알프스시장,5일장,울산광역시 울주군 언양읍 장터1길 12-1,울산광역시 울주군 언양읍 남부리 124-2 매일시장상가,35.5637023,129.1252897
09005,언양종합상가시장,상설장,울산광역시 울주군 언양읍 장터1길22,울산광역시 울주군 언양읍 남부리 124-2,35.5637001,129.1256956
09005,덕신2차시장,5일장,울산광역시 울주군 온산읍 신온7길 69,울산광역시 울주군 덕신리429,35.42934852,129.3100225
09005,남창옹기종기시장,5일장,울산광역시 울주군 온양읍 남창장터길 24,울산광역시 울주군 온양읍 남창리 146 남창옹기종기시장,35.41668686,129.2827813
09005,곡천공설시장,상설장+5일장,울산광역시 울주군 웅촌면 곡천동문길 20-22,울산광역시 울주군 웅촌면 곡천리320-2,35.4656179,129.2096999
09005,덕하공설시장,5일장,울산광역시 울주군 청량읍 덕하장터길 9 덕하시장,울산광역시 울주군 청량읍 상남리 578 덕하시장,35.49170116,129.3059223
09001,선우시장,상설장,울산광역시 중구 곽남14길 37,울산광역시 중구 남외동 385-3 선우시장 선화아파트,35.57119003,129.3421097
09001,울산시장,상설장,울산광역시 중구 구교로 35,울산광역시 중구 학산동 47-10 신중앙시장,35.55546849,129.3284088
09001,구역전시장,상설장,울산광역시 중구 구역전길 24-2 학성동,울산광역시 중구 학성동 432-438,35.55730008,129.3284132
09001,구역전전통시장,상설장,울산광역시 중구 구역전길 8 학산동,울산광역시 중구 학산동 61-9,35.55590681,129.3279591
09001,우정전통시장,5일장,울산광역시 중구 당산4길 21,울산광역시 중구 우정동 214-10,35.55395933,129.3107217
09001,서동시장,상설장,울산광역시 중구 동천5길 12 서동 월드빌라트,울산광역시 중구 서동 38-6 월드빌라트,35.5813415,129.3469788
09001,반구시장,상설장,울산광역시 중구 반구정14길 13 반구동,울산광역시 중구 반구동 453-39,35.55806103,129.3442422
09001,병영시장,상설장,울산광역시 중구 병영로14,울산광역시 중구 남외동 257-1 병영시장,35.57055945,129.3462928
09001,학성새벽시장,상설장,울산광역시 중구 새벽시장3길 23,울산광역시 중구 학성동 359-2,35.55664606,129.3326873
09001,신울산종합시장,상설장,울산광역시 중구 서원6길 11 반구동,울산광역시 중구 반구동 100-1,35.56123791,129.3373619
09001,성남프라자,상설장,울산광역시 중구 중앙3길 6,울산광역시 중구 성남동 190-239 성남프라자,35.55451635,129.31755
09001,중앙전통시장,상설장,울산광역시 중구 중앙시장 2길 옥교동,울산광역시 중구 옥교동 275-4,35.55518282,129.3222936
09001,옥골시장,상설장,울산광역시 중구 중앙시장길17-7,울산광역시 중구 옥교동 125-13,35.55523793,129.3229594
09001,태화종합시장,5일장,울산광역시 중구 화진길 20-4,울산광역시 중구 태화동 36-13,35.55419983,129.307415
03009,강화중앙시장,상설장,인천광역시 강화군 강화읍 강화대로 429 A동 430 B동,인천광역시 강화군 강화읍 신문리 205-5 A동 관청리 523-3 B동,37.74685524,126.4838615
03009,강화풍물시장,5일장,인천광역시 강화군 강화읍 중앙로 17-9,인천광역시 강화군 강화읍 갑곳리 849,37.74142155,126.4928692
03009,강화터미널상가,상설장,인천광역시 강화군 남산리 중앙로 43,인천광역시 강화군 남산리 222번지,37.73977668,126.4904067
03007,계산시장,상설장,인천광역시 계양구 계산 시장길 10-18,인천광역시 계양구 계산 계산동 960-27,37.5392795,126.7248527
03007,계양산전통시장,상설장,인천광역시 계양구 병방시장로69 2층,인천광역시 계양구 병방동 383,37.54845862,126.7392428
03007,작전전통시장,상설장,인천광역시 계양구 봉오대로677번길 20,인천광역시 계양구 작전2동 862의1,37.53248718,126.724325
03005,만수시장,상설장,인천광역시 남동구 만수로27번길 10-11,인천광역시 남동구 만수동 868-26,37.46004849,126.7317844
03005,간석자유시장,상설장,인천광역시 남동구 백범로 312-1,인천광역시 남동구 간석동 41-1,37.46388365,126.7153431
03005,남동산업용품상가,상설장,인천광역시 남동구 은청로4-7 4-19,인천광역시 남동구 고잔동 630,37.40694648,126.693402
03005,장승백이전통시장,상설장,인천광역시 남동구 인주대로888번길 35,인천광역시 남동구 만수동 1082-1,37.44656416,126.7352271
03005,구월도매전통시장,상설장,인천광역시 남동구 인하로521번길 10-15,인천광역시 남동구 구월동 1176-14,37.44365361,126.7056285
03005,소래포구전통어시장,상설장,인천광역시 남동구 장도로 86-17,인천광역시 남동구 논현동 111-168,37.39819474,126.739394
03005,구월시장,상설장,인천광역시 남동구 호구포로 790번길 21-13,인천광역시 남동구 구월동 1267-4,37.45336936,126.7202675
03005,인천모래내전통시장,상설장,인천광역시 남동구 호구포로810번길 42-8,인천광역시 남동구 구월동 1263-5,37.45420055,126.7214912
03002,인천산업용품유통센터,상설장,인천광역시 동구 방축로 83번길 23,인천광역시 동구 송림동 294,37.48482772,126.654796
03002,송림공구상가,상설장,인천광역시 동구 봉수대로 98,인천광역시 동구 송림동 296,37.4835908,126.6622109
03002,동부시장,상설장,인천광역시 동구 샛골로 164-5,인천광역시 동구 송림동 50-95,37.47699808,126.6452481
03002,현대시장,상설장,인천광역시 동구 송림로109번길 21,인천광역시 동구 송림동 50-1,37.47748725,126.6461237
03002,중앙시장,상설장,인천광역시 동구 중앙로 68,인천광역시 동구 송현동 100-12,37.47535282,126.6333451
03002,(주)중앙상사(송현자유시장),상설장,인천광역시 동구 중앙로 82,인천광역시 동구 송현동 100-179,37.47577727,126.632816
03002,송현시장,상설장,인천광역시 동구 화도진로44번길 18,인천광역시 동구 송현동 88-19,37.47616144,126.6346428
03003,인천 석바위 시장,상설장,인천광역시 미추홀구 경인로 485번길 17-1,인천광역시 미추홀구 주안동 922-6,37.46014695,126.6927355
03003,토지금고시장,상설장,인천광역시 미추홀구 낙성중로 38번길 5,인천광역시 미추홀구 용현동 617-55,37.45154989,126.6378022
03003,신기시장,상설장,인천광역시 미추홀구 미추홀대로547,인천광역시 미추홀구 주안동 1311-17,37.44621554,126.6786452
03003,용현시장,상설장,인천광역시 미추홀구 용삼길 13,인천광역시 미추홀구 용현동 459-92,37.45756117,126.6503744
03003,용남시장,상설장,인천광역시 미추홀구 인주대로 266번길17-1,인천광역시 미추홀구 용현동 4-2,37.45189805,126.6658494
03003,인천 남부 종합시장,상설장,인천광역시 미추홀구 인하로 274-30,인천광역시 미추홀구 주안동 1315-19,37.44737537,126.6783959
03003,학익시장,상설장,인천광역시 미추홀구 학익동 한나루로 400,인천광역시 미추홀구 학익동 270-3,37.44351498,126.6649652
03006,일신시장,상설장,인천광역시 부평구 경인로 1118번길 14-7,인천광역시 부평구 경인로 일신동 107,37.48472019,126.7432795
03006,열우물 전통시장,상설장,인천광역시 부평구 배곶남로 21번길 18,인천광역시 부평구 십정동 321-6,37.47340163,126.6955036
03006,부평문화의 거리,상설장,인천광역시 부평구 부평문화로 78-2,인천광역시 부평구 부평동 201의141,37.49408196,126.7250051
03006,부평종합시장,상설장,인천광역시 부평구 부흥로316번길 38-3,인천광역시 부평구 부평동 360-1,37.49649796,126.7266188
03006,진흥종합시장,상설장,인천광역시 부평구 부흥로3204번길 27,인천광역시 부평구 부평동 252-52,37.49694725,126.725706
03006,부평깡시장,상설장,인천광역시 부평구 주부토로32번길 25,인천광역시 부평구 시장로 부평동 252-3,37.49788794,126.726541
03008,인천 축산물 시장,상설장,인천광역시 서구 가좌로 96번길 35,인천광역시 서구 가좌동 480-19,37.47899257,126.6884571
03008,인천 강남시장,상설장,인천광역시 서구 강남로 14,인천광역시 서구 석남동 454-19,37.51122131,126.6719954
03008,신거북시장,상설장,인천광역시 서구 거북로99,인천광역시 서구 석남동 541-15,37.50328579,126.6729889
03008,정서진 중앙시장,상설장,인천광역시 서구 원창로239번길 11,인천광역시 서구 가정동 505,37.51857192,126.675938
03008,인천가좌시장,상설장,인천광역시 서구 장고개로337번길18의19,인천광역시 서구 가좌2동 30-48,37.49413933,126.6833977
03004,연수구 옥련시장,상설장,인천광역시 연수구 독배로 40번길 35,인천광역시 연수구 옥련동 462-32,37.42462185,126.64683
03004,연수 송도 역전 시장,상설장,인천광역시 연수구 한나루로196번길 14,인천광역시 연수구 옥련동 308-18,37.42645754,126.6576942
03001,신흥시장,상설장,인천광역시 중구 도원로 15-1,인천광역시 중구 선화동 29-10,37.46606007,126.636624
03001,인천종합어시장,상설장,인천광역시 중구 연안부두로 33번길 37,인천광역시 중구 항동7가 27-69,37.45413649,126.6071645
03001,신포시장,상설장,인천광역시 중구 우현로49번길 11-5,인천광역시 중구 우현로 신포동 3-2,37.47146219,126.627812
14013,강진읍시장,5일장,전라남도 강진군 강진읍 동성리 시장길 19,전라남도 강진군 강진읍 동성리 187-5,34.6403433,126.7741164
14013,마량 5일시장,5일장,전라남도 강진군 마량면 마량5길 11,전라남도 강진군 마량면 마량리 987-11,34.45095581,126.8165815
14013,병영5일시장,5일장,전라남도 강진군 병영면 남삼인길 6,전라남도 강진군 병영면 삼인리 318,34.7138022,126.815555
14009,전남고흥전통시장,5일장,전라남도 고흥군 고흥읍 시장길 1,전라남도 고흥군 고흥읍 남계리 628,34.60835694,127.2866005
14009,과역전통시장,5일장,전라남도 고흥군 과역면 시장안길 15,전라남도 고흥군 과역면 과역리 162,34.67945246,127.3622598
14009,녹동전통시장,5일장,전라남도 고흥군 도양읍 녹동남촌1길 24,전라남도 고흥군 도양읍 봉암리 2699-70,34.52787725,127.1383371
14009,도화전통시장,5일장,전라남도 고흥군 도화면 동신길 16-6,전라남도 고흥군 도화면 당오리 568-1,34.50979227,127.3218805
14009,동강전통시장,상설장+5일장,전라남도 고흥군 원유둔4길 13-1,전라남도 고흥군 동강면 유둔리 7-2,34.78056847,127.3348419
14007,곡성기차마을전통시장,5일장,전라남도 곡성군 곡성로 856,전라남도 곡성군 곡성읍 읍내리 208,35.27976851,127.2984376
14007,석곡전통시장,5일장,전라남도 곡성군 석곡면 석곡로 70,전라남도 곡성군 석곡면 석곡리 80-2,35.13294446,127.2540939
14007,옥과5일시장,5일장,전라남도 곡성군 옥과면 리문8길 14,전라남도 곡성군 옥과면 리문리 254-5,35.27590288,127.1379527
14005,광양 5일시장,상설장+5일장,전라남도 광양시 광양읍 백운로 3,전라남도 광양시 광양읍 목성리 696-3,34.9711607,127.5904533
14005,광영상설시장,상설장,전라남도 광양시 광영동 광영시장길 19,전라남도 광양시 광영동 682 A동 682-1 B동,34.96144588,127.7203697
14005,옥곡 5일시장,5일장,전라남도 광양시 옥곡면 큰골1길 2-26,전라남도 광양시 옥곡면 신금리 1337-1,34.98850348,127.7002397
14005,중마시장,상설장,전라남도 광양시 중마중앙로 88,전라남도 광양시 중동 1732-3,34.93820312,127.6988496
14008,구례5일시장,5일장,전라남도 구례군 구례읍 5일시장작은길 20,전라남도 구례군 구례읍 봉동리 190-1,35.21015153,127.4700805
14008,구례상설시장,상설장,전라남도 구례군 구례읍 구례1길 45-6,전라남도 구례군 구례읍 봉동리 378-1,35.20962446,127.4657567
14008,지리산나들이장터,상설장,전라남도 구례군 산동면 지리산온천로 126,전라남도 구례군 산동면 원촌리 38,35.31147064,127.4444997
14004,다시5일시장,5일장,전라남도 나주시 다시로 168-72,전라남도 나주시 다시면 동곡리 39-46,35.01574488,126.6356572
14004,나주시 남평5일시장,상설장+5일장,전라남도 나주시 지석로 21,전라남도 나주시 남평읍 남평리 69-1,35.04582181,126.8415403
14004,나주목사고을시장,5일장,전라남도 나주시 청동길 14,전라남도 나주시 삼도동 1388-2,35.03624619,126.7237675
14004,영산포 풍물시장,5일장,전라남도 나주시 풍물시장2길 12-14,전라남도 나주시 이창동 765,34.99199963,126.7072673
14006,창평전통시장,5일장,전라남도 담양군 창평면 사동길 14-25,전라남도 담양군 창평면 창평리 209-1,35.23810681,127.0149068
14001,우수영5일시장,5일장,전라남도 목포시 고하대로 706,,34.80937871,126.3742394
14001,중앙먹통시장,상설장,전라남도 목포시 삼일로13번길 18-2,전라남도 목포시 남교동 88-29,34.79404573,126.3817906
14001,청호시장,상설장,전라남도 목포시 석현로 28,전라남도 목포시 석현동 1171,34.81538137,126.424593
14001,목포 항동시장,상설장,전라남도 목포시 수강로12번길 2,전라남도 목포시 수강동1가 1,34.78600886,126.3856122
14001,목포동부시장,상설장,전라남도 목포시 영산로257번길 15,전라남도 목포시 용당동 1053,34.80460739,126.3934553
14001,신중앙시장,상설장,전라남도 목포시 원산중앙로 51,전라남도 목포시 산정동 1732,34.81025503,126.3775244
14001,목포자유시장,상설장,전라남도 목포시 자유로 122,전라남도 목포시 산정동 1383,34.79296436,126.4030678
14001,목포종합수산시장,상설장,전라남도 목포시 해안로 265-4,전라남도 목포시 광동1가 4-13,34.78777034,126.3898732
14016,무안전통시장,5일장,전라남도 무안군 무안읍 승달로 11,전라남도 무안군 무안읍 성내리 21-6,34.99348701,126.4724275
14016,일도전통시장,상설장+5일장,전라남도 무안군 시장길 11-22,전라남도 무안군 일로읍 월암리 111-9,34.84753508,126.4943346
14010,벌교 5일시장,5일장,전라남도 보성군 벌교읍 시장1길 10,전라남도 보성군 벌교읍 회정리 663-23,34.84493765,127.3450787
14010,벌교매일시장,상설장,전라남도 보성군 벌교읍 시장2길 10-41,전라남도 보성군 벌교읍 벌교리 887-22,34.84301489,127.3459933
14010,보성매일시장,상설장,전라남도 보성군 보성읍 신흥길 9,전라남도 보성군 보성읍 보성리 895-14,34.76817999,127.0806187
14010,녹차골보성향토시장,5일장,전라남도 보성군 보성읍 현충로 42-1,전라남도 보성군 보성읍 원봉리 2-1,34.76564893,127.0772318
14010,복내5일시장,5일장,전라남도 보성군 송재로 1838-12,전라남도 보성군 복내면 복내리 152-14,34.89370035,127.1331411
14010,조성5일시장,5일장,전라남도 보성군 조성면 조성로 90-6,전라남도 보성군 조성면 조성리 513-1,34.80647859,127.2452772
14003,웃장,5일장,전라남도 순천시 북문길 40,전라남도 순천시 동외동 168-1,34.95864578,127.4850341
14003,역전시장,상설장,전라남도 순천시 역전장길 9,전라남도 순천시 덕암동 227-1,34.94374807,127.503331
14003,순천시 아랫장,5일장,전라남도 순천시 장평로 60,전라남도 순천시 풍덕동 1264,34.94514679,127.49609
14003,주암시장,5일장,전라남도 순천시 주암호길 9,전라남도 순천시 주암면 광천 54-1,35.07574055,127.2352628
14003,중앙시장,상설장,전라남도 순천시 중앙시장길 18,전라남도 순천시 남내동 119-1,34.95326231,127.4846025
14003,괴목시장,5일장,전라남도 순천시 황전면 괴목길 17,전라남도 순천시 황전면 괴목리 45-1,35.10255463,127.4282253
14003,승주시장,상설장+5일장,전라남도 승주읍 승주장길 14,전라남도 순천시 승주읍 서평리 43,35.01325059,127.3910514
14022,지도시장,5일장,전라남도 신안군 지도읍 읍내길 16-20,전라남도 신안군 지도읍 읍내리 168-6,35.05881564,126.2069818
14002,여수해안건어물상가시장,상설장,전라남도 여수시 교동남2길 14,전라남도 여수시 교동 481,34.73953206,127.7345269
14002,여수교동시장,상설장,전라남도 여수시 교동시장1길 15-10,전라남도 여수시 교동 606-1,34.73912772,127.7301293
14002,(주)여수수산물 특화시장,상설장,전라남도 여수시 남산로 60-31,전라남도 여수시 남산동 4,34.7368326,127.7328889
14002,서시장 주변시장,5일장,전라남도 여수시 서교2길 2-7,전라남도 여수시 서교동 534-20,34.74094766,127.7285604
14002,여수중앙선어시장,상설장,전라남도 여수시 선어시장길 13,전라남도 여수시 중앙동 366,34.73945144,127.7368753
14002,덕양시장,상설장,전라남도 여수시 소라면 하세동길 12-2,전라남도 여수시 소라면 덕양리 1270-1,34.79796244,127.6320109
14002,여수수산시장,상설장,전라남도 여수시 여객선터미널길 24,전라남도 여수시 교동 680,34.73814206,127.7317636
14002,전남 여수시(주)서시장,상설장,전라남도 여수시 좌수영로 16-6,전라남도 여수시 서교동 280,34.74179248,127.7286157
14002,(주)중앙시장,상설장,전라남도 여수시 중앙로 43,전라남도 여수시 교동 400-1,34.74059589,127.7325649
14002,여수진남시장,상설장,전라남도 여수시 학동1길 10,전라남도 여수시 학동 35-1,34.76425614,127.6641226
14002,여수쌍봉시장,상설장,전라남도 여수시 학동2길 7,전라남도 여수시 학동 35-3번지,34.76414801,127.6649751
14002,제일시장,상설장,전라남도 여수시 학동2길 7-4,전라남도 여수시 학동 35-2,34.76419709,127.6646523
14002,여수도깨비시장,상설장,전라남도 여수시 학동서5길 18,전라남도 여수시 학동 58-7,34.7633188,127.6565389
14018,영광고추특화시장,상설장+5일장,전라남도 영광군 영광읍 신남로 100-25,전라남도 영광군 영광읍 신하리 324-3,35.27472849,126.4935459
14018,영광터미널시장,상설장,전라남도 영광군 영광읍 신남로3길 5-3,전라남도 영광군 영광읍 남천리 321-1,35.27553643,126.5030195
14018,굴비골영광시장,상설장,전라남도 영광군 영광읍 중앙로3길 5-22,전라남도 영광군 영광읍 도동리 186,35.27512831,126.5123229
14015,구림5일시장,5일장,전라남도 영암군 군서면 도갑사로 31-13,전라남도 영암군 군서면 동구림리 34-7,34.76237653,126.6353421
14015,영암 독천5일시장,5일장,전라남도 영암군 미암면 독천1길 19,전라남도 영암군 학산면 독천리 1237-2,34.72458908,126.567118
14015,시종5일시장,5일장,전라남도 영암군 시종면 내동중앙로 26,전라남도 영암군 시종면 만수리 933-40,34.8674024,126.608099
14015,영암읍 5일시장,5일장,전라남도 영암군 영암읍 오일시장길 28,전라남도 영암군 영암읍 동무리 17-3,34.80123919,126.7005657
14020,노화전통시장,5일장,전라남도 완도군 노화읍 이목길 62,전라남도 완도군 노화읍 이포리 678-13,34.17756009,126.5732134
14020,완도전통시장,5일장,전라남도 완도군 완도읍 개포로 34-1,전라남도 완도군 완도읍 군내리 1249-2,34.31610421,126.7482463
14020,완도중앙시장,상설장,전라남도 완도군 완도읍 장보고대로 282-1,전라남도 완도군 완도읍 군내리 1371,34.31446984,126.7552368
14019,사거리전통시장,상설장+5일장,전라남도 장성군 북이면 사남북길 22,전라남도 장성군 북이면 사거리 717-3,35.42767874,126.8072629
14019,사창시장,5일장,전라남도 장성군 삼계면 사창로 81-2,전라남도 장성군 삼계면 사창리 482-44,35.26039872,126.6630711
14019,황룡시장,5일장,전라남도 장성군 황룡면 삼월길 5,전라남도 장성군 황룡면 월평리 151-1,35.29168517,126.7738898
14012,천왕산관광시장,5일장,전라남도 장흥군 관산읍 칠관로 1559-4,전라남도 장흥군 관산읍 옥당리 489-1,34.56276999,126.9370792
14012,대덕읍전통시장,5일장,전라남도 장흥군 대덕읍 거정2길 10,전라남도 장흥군 대덕읍 신월리 111,34.4994381,126.8871266
14012,용산시장,상설장+5일장,전라남도 장흥군 용산면 용인길 4,전라남도 장흥군 용산면 인암리 800-1,34.61491088,126.9153133
14012,장평시장,상설장+5일장,전라남도 장흥군 장평면 장택길 7,전라남도 장흥군 장평면 양촌리 224,34.77547305,126.977761
14012,정남진 장흥토요장터,5일장,전라남도 장흥군 장흥읍 토요시장1길 53,전라남도 장흥군 장흥읍 예양리 158-2,34.67727214,126.9031396
14021,진도상설전통시장,상설장,전라남도 진도군 진도읍 남동1길 57-8,전라남도 진도군 진도읍 남동리 487-5,34.48135444,126.2649053
14021,진도읍조금시장,5일장,전라남도 진도군 진도읍 조금시장길 25,전라남도 진도군 진도읍 남동리 731,34.48147858,126.2569326
14017,나산 전통 5일시장,5일장,전라남도 함평군 나산면 나산길 15-10,전라남도 함평군 나산면 삼축리 344-3,35.11183644,126.6098468
14017,월야시장,5일장,전라남도 함평군 월야면 밀재로 1504-5,전라남도 함평군 월야면 월야리 713-43,35.17926967,126.6267791
14017,함평천지전통시장,5일장,전라남도 함평군 함평읍 시장길 49,전라남도 함평군 함평읍 기각리 980-2,35.06458237,126.5227236
14017,해보시장,5일장,전라남도 함평군 해보면 밀재로 1274-12,전라남도 함평군 해보면 문장리 822-116,35.18105262,126.6025523
14014,좌일5일시장,5일장,전라남도 해남군 북일면 만월길 26-1,전라남도 해남군 북일면 흥촌리 161,34.46385474,126.6725687
14014,북평면남창5일시장,5일장,전라남도 해남군 북평면 달량진길 48-11,전라남도 해남군 북평면 남창리 1279-1,34.40453577,126.6267154
14014,땅끝산정시장,5일장,전라남도 해남군 송지면 산정1길 96,전라남도 해남군 송지면 산정리 772-3,34.36964664,126.5191822
14014,해남읍5일시장,상설장+5일장,전라남도 해남군 해남읍 중앙2로 76,전라남도 해남군 해남읍 고도리 102-4,34.56878501,126.5971566
14014,화원5일시장,5일장,전라남도 해남군 화원면 금평길 14,,34.66949615,126.328231
14014,남리5일시장,5일장,전라남도 해남군 황산면 시등로 111-11,전라남도 해남군 황산면 남리리 7번지,34.57532366,126.4324836
14011,화순능주시장,5일장,전라남도 화순군 능주면 학포로 1955,전라남도 화순군 능주면 관영리 94-8,34.99091444,126.9593707
14011,화순이양전통시장,5일장,전라남도 화순군 이양면 이양로 29-19,전라남도 화순군 이양면 이양리 303-3,34.88259825,126.9868713
